hometown,country,Latitude,Longitude,"Accuracy Score","Accuracy Type",Number,Street,"Unit Type","Unit Number",City,State,County,Zip,Country,Source
"Mills River, N.C.",USA,35.383198,-82.626096,1,street_center,,"Mills River Way",,,"Horse Shoe",NC,"Henderson County",28742,US,"TIGER/Line® dataset from the US Census Bureau"
"Las Cruces, N.M.",USA,32.31073,-106.782148,0.9,street_center,,"W Las Cruces Ave",,,"Las Cruces",NM,"Doña Ana County",88005,US,"TIGER/Line® dataset from the US Census Bureau"
"Peoria, Ariz.",USA,32.43194,-83.722649,0.75,place,,,,,Perry,GA,"Houston County",31069,US,"TIGER/Line® dataset from the US Census Bureau"
"Fletcher, N.C.",USA,35.407122,-82.496451,0.9,street_center,,"Fletcher View Dr",,,Fletcher,NC,"Henderson County",28732,US,"TIGER/Line® dataset from the US Census Bureau"
"McHenry, Ill.",USA,42.318984,-88.443886,0.9,street_center,,"McHenry Ave",,,Woodstock,IL,"McHenry County",60098,US,"TIGER/Line® dataset from the US Census Bureau"
"Blythewood, S.C.",USA,34.213247,-80.999317,1,street_center,,"Blythewood Rd",,,Blythewood,SC,"Richland County",29016,US,"TIGER/Line® dataset from the US Census Bureau"
"Eagan, Minn.",USA,0,0,0,,,,,,,,,,,
"Watertown, Minn.",USA,0,0,0,,,,,,,,,,,
"Stoneville, N.C.",USA,36.466883,-79.912823,0.5,place,,,,,Stoneville,NC,"Rockingham County",27048,US,"TIGER/Line® dataset from the US Census Bureau"
"Minneapolis, Minn.",USA,0,0,0,,,,,,,,,,,
"Dayton, Minn.",USA,0,0,0,,,,,,,,,,,
"Aiken, SC",USA,33.649034,-81.366626,1,street_center,,"Aiken Rd",,,Aiken,SC,"Aiken County",29801,US,"TIGER/Line® dataset from the US Census Bureau"
"Coral Springs, FL",USA,26.266611,-80.266147,1,street_center,,"Coral Springs Dr",,,"Pompano Beach",FL,"Broward County",33065,US,"TIGER/Line® dataset from the US Census Bureau"
"Sellersburg, IN",USA,38.404577,-85.787963,1,place,,,,,Sellersburg,IN,"Clark County",47172,US,"TIGER/Line® dataset from the US Census Bureau"
"Louisville, KY",USA,38.19038,-85.757476,1,street_center,,"Louisville Ave",,,Louisville,KY,"Jefferson County",40209,US,"TIGER/Line® dataset from the US Census Bureau"
"New Albany, IN",USA,38.307183,-85.841639,1,street_center,,"New Albany Plz",,,"New Albany",IN,"Floyd County",47150,US,"TIGER/Line® dataset from the US Census Bureau"
"Benton, KY",USA,37.005624,-88.530429,0.9,street_center,,"Benton Rd",,,Paducah,KY,"McCracken County",42003,US,"TIGER/Line® dataset from the US Census Bureau"
"Cincinnati, OH",USA,39.288507,-84.350693,1,street_center,,"Cincinnati Ave",,,Cincinnati,OH,"Hamilton County",45249,US,"TIGER/Line® dataset from the US Census Bureau"
"Loogootee, IN",USA,38.771691,-86.912985,0.5,place,,,,,Loogootee,IN,"Martin County",47553,US,"TIGER/Line® dataset from the US Census Bureau"
"Troy, OH",USA,40.046782,-84.195699,1,street_center,,"Troy St",,,Troy,OH,"Miami County",45373,US,"TIGER/Line® dataset from the US Census Bureau"
"Georgetown, KY",USA,38.239718,-84.574498,0.5,place,,,,,Georgetown,KY,"Scott County",40324,US,"TIGER/Line® dataset from the US Census Bureau"
"DeWitt, MI",USA,42.915445,-84.581483,0.9,street_center,,"S Dewitt Rd",,,Dewitt,MI,"Clinton County",48820,US,"TIGER/Line® dataset from the US Census Bureau"
"Glen Ellyn, IL",USA,41.880518,-88.063294,1,street_center,,"Glen Ellyn Pl",,,"Glen Ellyn",IL,"Dupage County",60137,US,"TIGER/Line® dataset from the US Census Bureau"
"Muncie, IN",USA,40.22249,-85.36478,1,street_center,,"Muncie Byp",,,Muncie,IN,"Delaware County",47303,US,"TIGER/Line® dataset from the US Census Bureau"
"Charlotte, N.C.",USA,35.198282,-80.849366,1,street_center,,"Charlotte Dr",,,Charlotte,NC,"Mecklenburg County",28203,US,"TIGER/Line® dataset from the US Census Bureau"
"LaSalle, Ill.",USA,41.367693,-89.118482,1,street_center,,"Lasalle Rd",,,Lasalle,IL,"Lasalle County",61301,US,"TIGER/Line® dataset from the US Census Bureau"
"Kenyon, Minn.",USA,0,0,0,,,,,,,,,,,
"Wilson, N.C.",USA,35.717596,-77.92278,0.9,street_center,,"Wilson St SW",,,Wilson,NC,"Wilson County",27893,US,"TIGER/Line® dataset from the US Census Bureau"
"Wayzata, Minn.",USA,0,0,0,,,,,,,,,,,
"Beaumont, CA",USA,33.934774,-116.977025,1,street_center,,"Beaumont Ave",,,Beaumont,CA,"Riverside County",92223,US,"TIGER/Line® dataset from the US Census Bureau"
"Dallas, TX",USA,32.771036,-96.758802,1,street_center,,"Dallas St",,,Dallas,TX,"Dallas County",75210,US,"TIGER/Line® dataset from the US Census Bureau"
"Richmond, TX",USA,29.624302,-95.736246,1,street_center,,Richmond,,,Richmond,TX,"Fort Bend County",77469,US,"TIGER/Line® dataset from the US Census Bureau"
"Houston, TX",USA,29.649614,-95.22276,1,street_center,,"Houston Blvd",,,Houston,TX,"Harris County",77034,US,"TIGER/Line® dataset from the US Census Bureau"
"Mount Vernon, WA",USA,48.435248,-122.208184,1,place,,,,,"Mount Vernon",WA,"Skagit County",98273,US,"TIGER/Line® dataset from the US Census Bureau"
"Murrieta, CA",USA,33.591614,-117.182039,1,street_center,,"Murrieta Oaks Ave",,,Murrieta,CA,"Riverside County",92562,US,"TIGER/Line® dataset from the US Census Bureau"
"Mendota, IL",USA,41.54725,-89.11759,1,place,,,,,Mendota,IL,"Lasalle County",61342,US,"TIGER/Line® dataset from the US Census Bureau"
"Gaffney, S.C.",USA,35.067101,-81.661619,1,street_center,,"Gaffney St",,,Gaffney,SC,"Cherokee County",29340,US,"TIGER/Line® dataset from the US Census Bureau"
"Harrisburg, N.C.",USA,35.332267,-80.642076,1,street_center,,"Harrisburg Dr",,,Harrisburg,NC,"Cabarrus County",28075,US,"TIGER/Line® dataset from the US Census Bureau"
"Simpsonville, S.C.",USA,34.741329,-82.03442,0.9,street_center,,"Simpson Ave",,,Woodruff,SC,"Spartanburg County",29388,US,"TIGER/Line® dataset from the US Census Bureau"
"Excelsior, Minn.",USA,0,0,0,,,,,,,,,,,
"Milton, Ga.",USA,0,0,0,,,,,,,,,,,
"Lakeville, Minn.",USA,0,0,0,,,,,,,,,,,
"Cary, N.C.",USA,35.78901,-78.777686,1,street_center,,"Cary St",,,Cary,NC,"Wake County",27513,US,"TIGER/Line® dataset from the US Census Bureau"
"Waconia, Minn.",USA,0,0,0,,,,,,,,,,,
"Fort Mill, S.C.",USA,35.050243,-80.990828,0.5,place,,,,,"Fort Mill",SC,"York County",29708,US,"TIGER/Line® dataset from the US Census Bureau"
"Anderson, S.C.",USA,34.835455,-82.415366,0.9,street_center,,"Anderson St",,,Greenville,SC,"Greenville County",29601,US,"TIGER/Line® dataset from the US Census Bureau"
"Westampton, N.J.",USA,40.107274,-74.665201,1,state,,,,,,NJ,,,US,"TIGER/Line® dataset from the US Census Bureau"
"Columbia, S.C.",USA,33.987454,-81.024864,0.5,place,,,,,Columbia,SC,"Richland County",29201,US,"TIGER/Line® dataset from the US Census Bureau"
"Hilton Head Island, S.C.",USA,32.21319,-80.799698,1,place,,,,,"Hilton Head Island",SC,"Beaufort County",29925,US,"TIGER/Line® dataset from the US Census Bureau"
"River Edge, N.J.",USA,40.935096,-74.029634,1,street_center,,"River Edge Rd",,,"River Edge",NJ,"Bergen County",07661,US,"TIGER/Line® dataset from the US Census Bureau"
"New York, N.Y.",USA,40.702341,-74.010262,1,street_center,,"New York Plz",,,"New York",NY,"New York County",10004,US,"TIGER/Line® dataset from the US Census Bureau"
"Sioux Falls, S.D.",USA,43.543191,-96.745422,0.86,street_center,,"W Sioux St",,,"Sioux Falls",SD,"Minnehaha County",57104,US,"TIGER/Line® dataset from the US Census Bureau"
"Woodbury, Minn.",USA,0,0,0,,,,,,,,,,,
"Sioux Falls, S.D",USA,43.543191,-96.745422,0.86,street_center,,"W Sioux St",,,"Sioux Falls",SD,"Minnehaha County",57104,US,"TIGER/Line® dataset from the US Census Bureau"
"Webster, NY",USA,43.21821,-77.454075,0.5,place,,,,,Webster,NY,"Monroe County",14580,US,"TIGER/Line® dataset from the US Census Bureau"
"Glendale, NY",USA,40.633163,-73.932517,0.9,street_center,,"Glendale Ct",,,Brooklyn,NY,"Kings County",11234,US,"TIGER/Line® dataset from the US Census Bureau"
"Allen, TX",USA,33.111226,-96.672057,0.9,street_center,,"N Allen Dr",,,Allen,TX,"Collin County",75013,US,"TIGER/Line® dataset from the US Census Bureau"
"West Nyack, NY",USA,41.095177,-73.978136,1,street_center,,"W Nyack Rd",,,"West Nyack",NY,"Rockland County",10994,US,"TIGER/Line® dataset from the US Census Bureau"
"Winter Springs, FL",USA,28.678684,-81.250194,1,street_center,,"Winter Springs Blvd",,,"Winter Springs",FL,"Seminole County",32708,US,"TIGER/Line® dataset from the US Census Bureau"
"Phoenix, AZ",USA,33.35313,-111.790245,0.8,street_center,,"N Phoenix Ave",,,Gilbert,AZ,"Maricopa County",85233,US,"TIGER/Line® dataset from the US Census Bureau"
"Atlanta, GA",USA,33.857222,-84.675088,0.9,street_center,,"Atlanta St",,,"Powder Springs",GA,"Cobb County",30127,US,"TIGER/Line® dataset from the US Census Bureau"
"Corpus Christi, TX",USA,27.834064,-97.073866,0.9,street_center,,"Corpus Christi Ch",,,"Port Aransas",TX,"Nueces County",78373,US,"TIGER/Line® dataset from the US Census Bureau"
"Highland Mills, NY",USA,41.357945,-74.101067,1,street_center,,"Highland Dr",,,"Highland Mills",NY,"Orange County",10930,US,"TIGER/Line® dataset from the US Census Bureau"
"Long Beach, CA",USA,33.876382,-118.203508,0.95,street_center,,"Long Beach Blvd",,,"Long Beach",CA,"Los Angeles County",90805,US,"TIGER/Line® dataset from the US Census Bureau"
"Spring Hill, FL",USA,28.454624,-82.56045,1,street_center,,"Spring Hill Dr",,,"Spring Hill",FL,"Hernando County",34608,US,"TIGER/Line® dataset from the US Census Bureau"
"Peoria, AZ",USA,33.582581,-112.23758,0.9,street_center,,"W Peoria Ave",,,Peoria,AZ,"Maricopa County",85345,US,"TIGER/Line® dataset from the US Census Bureau"
"Queens, NY",USA,40.74738,-73.939607,1,street_center,,"Queens St",,,"Long Island City",NY,"Queens County",11101,US,"TIGER/Line® dataset from the US Census Bureau"
"Junction City, KS",USA,39.015353,-96.747527,1,street_center,,"Junction Rd",,,"Junction City",KS,"Geary County",66441,US,"TIGER/Line® dataset from the US Census Bureau"
"St. Petersburg, FL",USA,27.775654,-82.64092,0.5,place,,,,,"Saint Petersburg",FL,"Pinellas County",33701,US,"TIGER/Line® dataset from the US Census Bureau"
"New York City, N.Y.",USA,40.702341,-74.010262,0.9,street_center,,"New York Plz",,,"New York",NY,"New York County",10004,US,"TIGER/Line® dataset from the US Census Bureau"
"Miller, S.D.",USA,44.480979,-99.062766,1,place,,,,,Miller,SD,"Hand County",57362,US,"TIGER/Line® dataset from the US Census Bureau"
"Pickens, S.C.",USA,34.835435,-82.624762,0.9,street_center,,"Pickens St",,,Easley,SC,"Pickens County",29640,US,"TIGER/Line® dataset from the US Census Bureau"
"Marriot, Md.",USA,0,0,0,,,,,,,,,,,
"Hampton, VA",USA,36.996051,-76.388117,1,street_center,,"Hampton Dr",,,Hampton,VA,"Hampton City",23661,US,"TIGER/Line® dataset from the US Census Bureau"
"Philadelphia, PA",USA,40.083654,-75.349867,0.9,street_center,,"Philadelphia Ave",,,"King of Prussia",PA,"Montgomery County",19406,US,"TIGER/Line® dataset from the US Census Bureau"
NA,USA,37.66397,-84.466325,0.8,place,,,,,Nina,KY,"Garrard County",40444,US,"TIGER/Line® dataset from the US Census Bureau"
"Kernersville, N.C.",USA,36.100167,-80.117434,1,street_center,,"Kernersville Rd",,,Kernersville,NC,"Forsyth County",27284,US,"TIGER/Line® dataset from the US Census Bureau"
"Knightdale, N.C.",USA,35.791746,-78.426406,0.9,street_center,,"Knightdale Rd",,,Wendell,NC,"Wake County",27591,US,"TIGER/Line® dataset from the US Census Bureau"
"Hendersonville, N.C.",USA,35.480904,-82.524741,0.9,street_center,,"Hendersonville Rd",,,Arden,NC,"Buncombe County",28704,US,"TIGER/Line® dataset from the US Census Bureau"
"Saint Paul, Minn.",USA,0,0,0,,,,,,,,,,,
"Poughkeepsie, N.Y.",USA,41.701908,-73.911521,1,place,,,,,Poughkeepsie,NY,"Dutchess County",12601,US,"TIGER/Line® dataset from the US Census Bureau"
"Wantagh, N.Y.",USA,40.679561,-73.509882,1,street_center,,"Wantagh Ave",,,Wantagh,NY,"Nassau County",11793,US,"TIGER/Line® dataset from the US Census Bureau"
"Bronx, N.Y.",USA,40.953524,-73.826531,0.9,street_center,,"Bronx St",,,Tuckahoe,NY,"Westchester County",10707,US,"TIGER/Line® dataset from the US Census Bureau"
"Lake Grove, N.Y.",USA,40.876248,-73.068881,0.9,street_center,,"Lake Grove St",,,Centereach,NY,"Suffolk County",11720,US,"TIGER/Line® dataset from the US Census Bureau"
"Eastchester, N.Y.",USA,40.926668,-73.796109,0.9,street_center,,"Eastchester Rd",,,"New Rochelle",NY,"Westchester County",10801,US,"TIGER/Line® dataset from the US Census Bureau"
"Commack, N.Y.",USA,40.826366,-73.292908,1,street_center,,"Commack Rd",,,Commack,NY,"Suffolk County",11725,US,"TIGER/Line® dataset from the US Census Bureau"
"Rochester, Minn.",USA,0,0,0,,,,,,,,,,,
"Lakeland, FL",USA,28.076798,-81.512728,0.9,street_center,,"Lakeland Pl",,,Kissimmee,FL,"Polk County",34759,US,"TIGER/Line® dataset from the US Census Bureau"
"Cullowhee, N.C.",USA,35.305898,-83.180369,1,street_center,,"Cullowhee Hts",,,Cullowhee,NC,"Jackson County",28723,US,"TIGER/Line® dataset from the US Census Bureau"
"Spartanburg, S.C.",USA,34.948819,-82.125499,0.9,street_center,,"Spartanburg Rd",,,Lyman,SC,"Spartanburg County",29365,US,"TIGER/Line® dataset from the US Census Bureau"
"Little River, S.C.",USA,33.905171,-78.6575,0.95,street_center,,"Little River Rd",,,"Little River",SC,"Horry County",29566,US,"TIGER/Line® dataset from the US Census Bureau"
"Hutchinson, Minn.",USA,0,0,0,,,,,,,,,,,
"Coeur d’Alene, Idaho",USA,47.97368,-116.830349,0.9,street_center,,"Coeur D'alene Dr",,,"Spirit Lake",ID,"Kootenai County",83869,US,"TIGER/Line® dataset from the US Census Bureau"
"San Antonio, TX",USA,29.456919,-98.528097,1,street_center,,"San Antonio Ave",,,"San Antonio",TX,"Bexar County",78201,US,"TIGER/Line® dataset from the US Census Bureau"
"Portland, OR",USA,45.598415,-122.722776,0.9,street_center,,"N Portland Rd",,,Portland,OR,"Multnomah County",97203,US,"TIGER/Line® dataset from the US Census Bureau"
"Pendleton, IN",USA,39.970522,-85.757041,1,street_center,,"Pendleton Ave",,,Pendleton,IN,"Madison County",46064,US,"TIGER/Line® dataset from the US Census Bureau"
"Latrobe, PA",USA,40.293356,-79.379471,1,street_center,,"Latrobe St",,,Latrobe,PA,"Westmoreland County",15650,US,"TIGER/Line® dataset from the US Census Bureau"
"Murphy, NC",USA,35.131159,-84.038776,0.5,place,,,,,Murphy,NC,"Cherokee County",28906,US,"TIGER/Line® dataset from the US Census Bureau"
"Lewisville, TX",USA,33.20743,-97.116282,0.5,place,,,,,Lewisville,TX,"Denton County",75029,US,"TIGER/Line® dataset from the US Census Bureau"
"Florence, KY",USA,38.962372,-84.747789,0.5,place,,,,,Florence,KY,"Boone County",41022,US,"TIGER/Line® dataset from the US Census Bureau"
"Morris, IL",USA,41.097242,-88.429996,0.9,street_center,,"Morris Rd",,,Dwight,IL,"Livingston County",60420,US,"TIGER/Line® dataset from the US Census Bureau"
"Austin, TX",USA,30.386691,-97.691927,0.8,street_center,,"Austin Park Ln",,,Austin,TX,"Travis County",78758,US,"TIGER/Line® dataset from the US Census Bureau"
"Shelby Township, MI",USA,43.609698,-86.391361,0.9,street_center,,"W Shelby Rd",,,Shelby,MI,"Oceana County",49455,US,"TIGER/Line® dataset from the US Census Bureau"
"Huntington Beach, CA",USA,33.673475,-117.995323,1,street_center,,"Huntington St",,,"Huntington Beach",CA,"Orange County",92648,US,"TIGER/Line® dataset from the US Census Bureau"
"Canby, OR",USA,45.468987,-122.708436,0.8,street_center,,"SW Canby Ct",,,Portland,OR,"Multnomah County",97219,US,"TIGER/Line® dataset from the US Census Bureau"
"Indianapolis, IN",USA,39.804803,-86.168093,1,street_center,,"Indianapolis Ave",,,Indianapolis,IN,"Marion County",46208,US,"TIGER/Line® dataset from the US Census Bureau"
"Ankeny, IA",USA,41.699545,-93.609224,0.9,street_center,,"SW Ankeny Rd",,,Ankeny,IA,"Polk County",50023,US,"TIGER/Line® dataset from the US Census Bureau"
"Fort Myers, FL",USA,26.621074,-81.878139,1,place,,,,,"Fort Myers",FL,"Lee County",33901,US,"TIGER/Line® dataset from the US Census Bureau"
"Playa Del Rey, CA",USA,33.991478,-118.390214,0.9,street_center,,"Playa Ct",,,"Culver City",CA,"Los Angeles County",90230,US,"TIGER/Line® dataset from the US Census Bureau"
"Stanfield, N.C.",USA,35.23348,-80.42701,0.5,place,,,,,Stanfield,NC,"Stanly County",28163,US,"TIGER/Line® dataset from the US Census Bureau"
"Commerce Township, MI",USA,42.59653,-83.540905,0.9,street_center,,"E Commerce Rd",,,"Commerce Township",MI,"Oakland County",48382,US,"TIGER/Line® dataset from the US Census Bureau"
"Montclair, CA",USA,34.07751,-117.68978,0.5,place,,,,,Montclair,CA,"San Bernardino County",91763,US,"TIGER/Line® dataset from the US Census Bureau"
"Vista, CA",USA,32.630106,-117.020464,0.86,street_center,,"Vista Oak Pl",,,"Chula Vista",CA,"San Diego County",91910,US,"TIGER/Line® dataset from the US Census Bureau"
"Middleton, WI",USA,43.08626,-89.507009,0.9,street_center,,"Middleton St",,,Madison,WI,"Dane County",53717,US,"TIGER/Line® dataset from the US Census Bureau"
"Round Rock, TX",USA,30.512824,-97.701617,1,street_center,,"Round Rock Ave",,,"Round Rock",TX,"Williamson County",78681,US,"TIGER/Line® dataset from the US Census Bureau"
"Highlands Ranch, CO",USA,27.49901,-81.478881,0.3,street_center,,"Highlands Rd",,,Sebring,FL,"Highlands County",33870,US,"TIGER/Line® dataset from the US Census Bureau"
"Portland, TX",USA,27.890649,-97.321504,1,street_center,,"Portland Dr",,,Portland,TX,"San Patricio County",78374,US,"TIGER/Line® dataset from the US Census Bureau"
"Hope Mills, NC",USA,35.018442,-78.963376,0.9,street_center,,"Hope Mills Rd",,,Fayetteville,NC,"Cumberland County",28304,US,"TIGER/Line® dataset from the US Census Bureau"
"Rocklin, CA",USA,38.788355,-121.227671,1,street_center,,"Rocklin Rd",,,Rocklin,CA,"Placer County",95677,US,"TIGER/Line® dataset from the US Census Bureau"
"Monroe, MI",USA,41.9118,-83.401454,0.9,street_center,,"S Monroe St",,,Monroe,MI,"Monroe County",48161,US,"TIGER/Line® dataset from the US Census Bureau"
"Downingtown, PA",USA,39.962956,-75.623979,0.86,street_center,,"Downingtown Pike",,,"West Chester",PA,"Chester County",19380,US,"TIGER/Line® dataset from the US Census Bureau"
"Boston, NY",USA,42.601664,-78.788884,0.9,street_center,,"Boston Rd",,,Eden,NY,"Erie County",14057,US,"TIGER/Line® dataset from the US Census Bureau"
"Allendale, NJ",USA,41.031556,-74.0977,0.8,street_center,,"E Allendale Rd",,,"Saddle River",NJ,"Bergen County",07458,US,"TIGER/Line® dataset from the US Census Bureau"
"Brooklyn, NY",USA,40.63776,-73.943928,1,street_center,,"Brooklyn Rd",,,Brooklyn,NY,"Kings County",11210,US,"TIGER/Line® dataset from the US Census Bureau"
"Heath, Texas",USA,30.086834,-95.990493,0.55,place,,,,,Howth,TX,"Waller County",77446,US,"TIGER/Line® dataset from the US Census Bureau"
"Chapel Hill, N.C.",USA,36.004647,-79.054475,0.5,place,,,,,"Chapel Hill",NC,"Orange County",27514,US,"TIGER/Line® dataset from the US Census Bureau"
"Apex, N.C.",USA,35.712397,-78.915514,1,place,,,,,Apex,NC,"Wake County",27502,US,"TIGER/Line® dataset from the US Census Bureau"
"Parsippany, N.J.",USA,40.838196,-74.421535,0.9,street_center,,"Parsippany Rd",,,Whippany,NJ,"Morris County",07981,US,"TIGER/Line® dataset from the US Census Bureau"
"McKinney, Texas",USA,33.195622,-96.618766,1,street_center,,"McKinney St",,,McKinney,TX,"Collin County",75069,US,"TIGER/Line® dataset from the US Census Bureau"
"Martinsburg, W.Va.",USA,36.681298,-79.86626,0.75,place,,,,,Martinsville,VA,"Martinsville City",24112,US,"TIGER/Line® dataset from the US Census Bureau"
"Stuart, FL.",USA,27.211147,-80.261609,0.9,street_center,,"NW Stuart Ave",,,Stuart,FL,"Martin County",34994,US,"TIGER/Line® dataset from the US Census Bureau"
"Denver, N.C.",USA,35.523588,-81.017644,1,street_center,,"Denver Dr",,,Denver,NC,"Lincoln County",28037,US,"TIGER/Line® dataset from the US Census Bureau"
"Orchard Park, N.Y.",USA,42.818111,-78.769002,0.9,street_center,,"Orchard Park Rd",,,Buffalo,NY,"Erie County",14224,US,"TIGER/Line® dataset from the US Census Bureau"
"Honolulu, HI",USA,21.344691,-157.720611,0.9,street_center,,"Hanalulu Pl",,,Waimanalo,HI,"Honolulu County",96795,US,"TIGER/Line® dataset from the US Census Bureau"
"East Aurora, N.Y.",USA,42.758852,-78.594698,0.6,street_center,,"Aurora Expy",,,"East Aurora",NY,"Erie County",14052,US,"TIGER/Line® dataset from the US Census Bureau"
"Raleigh, N.C.",USA,35.797903,-78.611164,0.9,street_center,,"S Raleigh Blvd",,,Raleigh,NC,"Wake County",27610,US,"TIGER/Line® dataset from the US Census Bureau"
"Charleston, S.C.",USA,33.013005,-80.183443,0.9,street_center,,"Charleston St",,,Summerville,SC,"Dorchester County",29483,US,"TIGER/Line® dataset from the US Census Bureau"
"Salisbury, N.C.",USA,35.624617,-80.481004,1,street_center,,"Salisbury Rd",,,Salisbury,NC,"Rowan County",28146,US,"TIGER/Line® dataset from the US Census Bureau"
"O'Fallon, Mo.",USA,38.801316,-90.752357,0.9,street_center,,"E Ofallan",,,O'fallon,MO,"St. Charles County",63366,US,"TIGER/Line® dataset from the US Census Bureau"
"Baldwinsville, N.Y.",USA,43.160196,-76.313356,1,street_center,,"Baldwinsville Byp",,,Baldwinsville,NY,"Onondaga County",13027,US,"TIGER/Line® dataset from the US Census Bureau"
"Macedon, N.Y.",USA,43.094094,-77.327986,0.9,street_center,,"Macedon Center Rd",,,Macedon,NY,"Wayne County",14502,US,"TIGER/Line® dataset from the US Census Bureau"
"DeWitt, Mich.",USA,40.183582,-88.785501,1,street_center,,"Dewitt St",,,Dewitt,IL,"De Witt County",61735,US,"TIGER/Line® dataset from the US Census Bureau"
"Maumee, OH",USA,41.615516,-83.709786,0.9,street_center,,"Maumee St",,,Holland,OH,"Lucas County",43528,US,"TIGER/Line® dataset from the US Census Bureau"
"Trumbull,CT",USA,41.259996,-73.206957,0.5,place,,,,,Trumbull,CT,"Greater Bridgeport Planning Region",06611,US,"TIGER/Line® dataset from the US Census Bureau"
"Nocatee,FL",USA,27.149245,-81.895327,1,place,,,,,Nocatee,FL,"Desoto County",34268,US,"TIGER/Line® dataset from the US Census Bureau"
"Pittsboro, NC",USA,35.796014,-79.545787,0.9,street_center,,"Pittsboro St",,,Staley,NC,"Randolph County",27355,US,"TIGER/Line® dataset from the US Census Bureau"
"Greenwood, IN",USA,39.63157,-86.108264,0.9,street_center,,"Greenwood Trl N",,,Greenwood,IN,"Johnson County",46142,US,"TIGER/Line® dataset from the US Census Bureau"
"Victor, N.Y.",USA,43.038257,-77.40007,1,street_center,,"Victor Rd",,,Victor,NY,"Monroe County",14564,US,"TIGER/Line® dataset from the US Census Bureau"
"Middletown, N.Y.",USA,41.620445,-74.561117,0.8,street_center,,"Middletown Pt Rd",,,"Rock Hill",NY,"Sullivan County",12775,US,"TIGER/Line® dataset from the US Census Bureau"
"Arlington, VA",USA,38.871494,-77.096277,1,street_center,,"Arlington Blvd",,,Arlington,VA,"Arlington County",22204,US,"TIGER/Line® dataset from the US Census Bureau"
"McKinney, Tex.",USA,33.195622,-96.618766,1,street_center,,"McKinney St",,,McKinney,TX,"Collin County",75069,US,"TIGER/Line® dataset from the US Census Bureau"
"Arvada, Colo.",USA,0,0,0,,,,,,,,,,,
"Summerfield, N.C.",USA,36.195617,-79.898286,1,street_center,,"Summerfield Rd",,,Summerfield,NC,"Guilford County",27358,US,"TIGER/Line® dataset from the US Census Bureau"
"Palm Desert, CA",USA,33.721873,-116.372441,1,street_center,,"Palm Desert Dr",,,"Palm Desert",CA,"Riverside County",92260,US,"TIGER/Line® dataset from the US Census Bureau"
"Camarillo, CA",USA,34.213734,-119.031874,1,street_center,,"Camarillo St",,,Camarillo,CA,"Ventura County",93012,US,"TIGER/Line® dataset from the US Census Bureau"
"Yorkville, IL",USA,41.645506,-88.418502,1,street_center,,"Yorkville Rd",,,Yorkville,IL,"Kendall County",60560,US,"TIGER/Line® dataset from the US Census Bureau"
"Elkhorn, NE",USA,41.283396,-96.238857,1,street_center,,"Elkhorn Dr",,,Elkhorn,NE,"Douglas County",68022,US,"TIGER/Line® dataset from the US Census Bureau"
"Chippewa Falls, WI",USA,45.298501,-91.398186,0.9,street_center,,"Chippewa Trl",,,"New Auburn",WI,"Rusk County",54757,US,"TIGER/Line® dataset from the US Census Bureau"
"Manteno, IL",USA,41.249087,-88.034286,0.9,street_center,,"W Manteno Rd",,,Manteno,IL,"Will County",60950,US,"TIGER/Line® dataset from the US Census Bureau"
"Lapeer, MI",USA,42.90211,-83.312056,0.9,street_center,,"Lapeer Rd",,,Oxford,MI,"Lapeer County",48371,US,"TIGER/Line® dataset from the US Census Bureau"
"Lincoln, NE",USA,40.79421,-96.620059,0.8,street_center,,"Lincolnshire Rd",,,Lincoln,NE,"Lancaster County",68506,US,"TIGER/Line® dataset from the US Census Bureau"
"Dike, IA",USA,42.489508,-92.632946,0.9,street_center,,"N Dike",,,Dike,IA,"Grundy County",50624,US,"TIGER/Line® dataset from the US Census Bureau"
"Sandusky, OH",USA,41.470949,-82.810709,1,street_center,,Sandusky,,,Sandusky,OH,"Erie County",44870,US,"TIGER/Line® dataset from the US Census Bureau"
"Woodstock, IL",USA,42.313288,-88.755244,0.9,street_center,,"Woodstock Rd",,,"Garden Prairie",IL,"Boone County",61038,US,"TIGER/Line® dataset from the US Census Bureau"
"Nixa, MO",USA,37.04339,-93.29435,1,place,,,,,Nixa,MO,"Christian County",65714,US,"TIGER/Line® dataset from the US Census Bureau"
"Watseka, IL",USA,40.749938,-87.798478,1,place,,,,,Watseka,IL,"Iroquois County",60970,US,"TIGER/Line® dataset from the US Census Bureau"
"Jacksonville, IL",USA,39.742108,-90.263157,1,street_center,,"Jacksonville Pl",,,Jacksonville,IL,"Morgan County",62650,US,"TIGER/Line® dataset from the US Census Bureau"
"Macomb, IL",USA,40.427262,-90.787637,0.9,street_center,,"Macomb St",,,Colchester,IL,"McDonough County",62326,US,"TIGER/Line® dataset from the US Census Bureau"
"Bourbonnais, IL",USA,41.180968,-87.847038,0.5,place,,,,,Bourbonnais,IL,"Kankakee County",60914,US,"TIGER/Line® dataset from the US Census Bureau"
"Lemont, IL",USA,41.672977,-87.999416,1,street_center,,"Lemont Rd",,,Lemont,IL,"Cook County",60439,US,"TIGER/Line® dataset from the US Census Bureau"
"Bonner Springs, KS",USA,39.073534,-94.881865,1,street_center,,"Bonner Ln",,,"Bonner Springs",KS,"Wyandotte County",66012,US,"TIGER/Line® dataset from the US Census Bureau"
"King of Prussia, Penn.",USA,40.609052,-79.569776,1,street_center,,"King Rd",,,Vandergrift,PA,"Armstrong County",15690,US,"TIGER/Line® dataset from the US Census Bureau"
"Jeffersonville, IN",USA,38.294683,-85.738126,1,street_center,,"Jefferson Ct",,,Jeffersonville,IN,"Clark County",47130,US,"TIGER/Line® dataset from the US Census Bureau"
"Wichita, KS",USA,37.801606,-97.332529,1,street_center,,Wichita,,,Wichita,KS,"Sedgwick County",67219,US,"TIGER/Line® dataset from the US Census Bureau"
"High Point, N.C.",USA,36.057454,-80.145782,0.9,street_center,,"High Point Rd",,,Winston-Salem,NC,"Forsyth County",27107,US,"TIGER/Line® dataset from the US Census Bureau"
"Huntersville, N.C.",USA,35.413468,-80.819725,0.7,street_center,,"Huntersville-Concord Rd",,,Huntersville,NC,"Mecklenburg County",28078,US,"TIGER/Line® dataset from the US Census Bureau"
"Hollywood, FL",USA,26.010633,-80.175891,1,street_center,,"Hollywood Blvd",,,Hollywood,FL,"Broward County",33021,US,"TIGER/Line® dataset from the US Census Bureau"
"Mooresville, N.C.",USA,35.618222,-80.734845,1,street_center,,"Mooresville Rd",,,Mooresville,NC,"Rowan County",28115,US,"TIGER/Line® dataset from the US Census Bureau"
"Holly Springs, N.C.",USA,35.654669,-78.823398,0.86,street_center,,"Holly Springs Rd",,,Apex,NC,"Wake County",27539,US,"TIGER/Line® dataset from the US Census Bureau"
"Morganton, N.C.",USA,35.772992,-81.676229,0.5,place,,,,,Morganton,NC,"Burke County",28655,US,"TIGER/Line® dataset from the US Census Bureau"
"Boone, N.C.",USA,36.200375,-81.658899,0.9,street_center,,"Boone Heights Dr",,,Boone,NC,"Watauga County",28607,US,"TIGER/Line® dataset from the US Census Bureau"
"Brevard, N.C.",USA,35.174351,-82.753971,0.5,place,,,,,Brevard,NC,"Transylvania County",28712,US,"TIGER/Line® dataset from the US Census Bureau"
"Grand Rapids, MN",USA,47.23973,-93.53004,0.5,place,,,,,"Grand Rapids",MN,"Itasca County",55730,US,"TIGER/Line® dataset from the US Census Bureau"
"Lake in the Hills, Ill.",USA,0,0,0,,,,,,,,,,,
"Flora, Miss.",USA,0,0,0,,,,,,,,,,,
"Selma, IN",USA,40.15178,-85.265562,1,place,,,,,Selma,IN,"Delaware County",47383,US,"TIGER/Line® dataset from the US Census Bureau"
"Clarkston, MI",USA,42.758986,-83.348657,1,street_center,,"Clarkston Rd",,,Clarkston,MI,"Oakland County",48348,US,"TIGER/Line® dataset from the US Census Bureau"
"Loveland, OH",USA,39.267992,-84.292648,0.9,street_center,,"W Loveland Ave",,,Loveland,OH,"Hamilton County",45140,US,"TIGER/Line® dataset from the US Census Bureau"
"Bartlett, TN",USA,35.172312,-89.880538,1,street_center,,"Bartlett Rd",,,Memphis,TN,"Shelby County",38134,US,"TIGER/Line® dataset from the US Census Bureau"
"Parker City, IN",USA,40.174184,-85.173858,1,place,,,,,"Parker City",IN,"Randolph County",47368,US,"TIGER/Line® dataset from the US Census Bureau"
"Daytona Beach, FL",USA,29.220089,-81.02399,1,street_center,,"Daytona St",,,"Daytona Beach",FL,"Volusia County",32114,US,"TIGER/Line® dataset from the US Census Bureau"
"Tallahasee, FL",USA,30.513231,-84.238013,0.9,street_center,,"Tallahassee Dr",,,"Miccosukee Cpo",FL,"Leon County",32309,US,"TIGER/Line® dataset from the US Census Bureau"
"Hurdle Mills, N.C.",USA,36.334198,-79.01359,0.9,street_center,,"Hurdle Mills Rd",,,Roxboro,NC,"Person County",27573,US,"TIGER/Line® dataset from the US Census Bureau"
"Niskayuna, N.Y.",USA,42.823557,-73.898304,1,street_center,,"Niskayuna Dr",,,Schenectady,NY,"Schenectady County",12309,US,"TIGER/Line® dataset from the US Census Bureau"
"Manlius, N.Y.",USA,42.955618,-75.96654,0.5,place,,,,,Manlius,NY,"Onondaga County",13104,US,"TIGER/Line® dataset from the US Census Bureau"
"Smithtown, N.Y.",USA,40.847148,-73.170573,1,street_center,,"Smithtown Byp",,,Smithtown,NY,"Suffolk County",11787,US,"TIGER/Line® dataset from the US Census Bureau"
"Merrick, N.Y.",USA,40.668501,-73.553628,0.5,place,,,,,Merrick,NY,"Nassau County",11566,US,"TIGER/Line® dataset from the US Census Bureau"
"Oxford, N.C.",USA,36.356176,-78.922551,0.9,street_center,,"Oxford Rd",,,Roxboro,NC,"Person County",27574,US,"TIGER/Line® dataset from the US Census Bureau"
"Clifton, N.J.",USA,40.870615,-74.154291,1,street_center,,"Clifton Ave",,,Clifton,NJ,"Passaic County",07011,US,"TIGER/Line® dataset from the US Census Bureau"
"Rockaway, N.J.",USA,40.894731,-74.507057,1,street_center,,"Rockaway Ave",,,Rockaway,NJ,"Morris County",07866,US,"TIGER/Line® dataset from the US Census Bureau"
"Washington, D.C.",USA,38.911936,-77.016719,0.5,place,,,,,Washington,DC,"District of Columbia",20001,US,"TIGER/Line® dataset from the US Census Bureau"
"Bakersfield, CA",USA,35.434583,-119.254439,1,street_center,,"Baker Rd",,,Bakersfield,CA,"Kern County",93314,US,"TIGER/Line® dataset from the US Census Bureau"
"Livermore, CA",USA,37.745068,-121.769757,0.95,street_center,,"Livermore Ave",,,Livermore,CA,"Alameda County",94551,US,"TIGER/Line® dataset from the US Census Bureau"
"Encinitas, CA",USA,33.045619,-117.255936,1,street_center,,"Encinitas Blvd",,,Encinitas,CA,"San Diego County",92024,US,"TIGER/Line® dataset from the US Census Bureau"
"San Luis Obispo, CA",USA,35.745687,-120.698487,0.9,street_center,,"San Luis Obispo Rd",,,"Paso Robles",CA,"San Luis Obispo County",93446,US,"TIGER/Line® dataset from the US Census Bureau"
"Roseville, CA",USA,38.725961,-121.307339,1,street_center,,"Roseville Rd",,,Roseville,CA,"Placer County",95678,US,"TIGER/Line® dataset from the US Census Bureau"
"Medford, OR",USA,42.332407,-122.866155,1,street_center,,"Medford Ctr",,,Medford,OR,"Jackson County",97504,US,"TIGER/Line® dataset from the US Census Bureau"
"Las Vegas, NV",USA,36.094409,-115.180315,1,street_center,,"Las Vegas Fwy",,,"Las Vegas",NV,"Clark County",89119,US,"TIGER/Line® dataset from the US Census Bureau"
"San Diego, CA",USA,33.15739,-117.339693,0.9,street_center,,"San Diego Fwy",,,Carlsbad,CA,"San Diego County",92008,US,"TIGER/Line® dataset from the US Census Bureau"
"Campbell, CA",USA,37.286666,-121.963332,0.9,street_center,,"W Campbell Ave",,,Campbell,CA,"Santa Clara County",95008,US,"TIGER/Line® dataset from the US Census Bureau"
"Whitewater, WI",USA,42.831207,-88.735199,0.9,street_center,,"W Whitewater St",,,Whitewater,WI,"Walworth County",53190,US,"TIGER/Line® dataset from the US Census Bureau"
"Oakland, CA",USA,37.820403,-122.250872,1,street_center,,Oakland,,,Oakland,CA,"Alameda County",94611,US,"TIGER/Line® dataset from the US Census Bureau"
"Redwood City, CA",USA,37.462158,-122.235639,0.5,place,,,,,"Redwood City",CA,"San Mateo County",94061,US,"TIGER/Line® dataset from the US Census Bureau"
"Sacramento, CA",USA,37.798043,-120.993456,0.9,street_center,,"Sacramento St",,,Escalon,CA,"San Joaquin County",95320,US,"TIGER/Line® dataset from the US Census Bureau"
"Auburn, CA",USA,39.100167,-120.951563,1,street_center,,"Auburn St",,,Auburn,CA,"Placer County",95602,US,"TIGER/Line® dataset from the US Census Bureau"
"Menifee, CA",USA,33.677245,-117.155262,1,street_center,,"Menifee Rd",,,Menifee,CA,"Riverside County",92584,US,"TIGER/Line® dataset from the US Census Bureau"
"Lafayette, CA",USA,37.901223,-122.120089,0.5,place,,,,,Lafayette,CA,"Contra Costa County",94549,US,"TIGER/Line® dataset from the US Census Bureau"
"Kahalu'u, HI",USA,20.021576,-155.648565,0.9,street_center,,"Kahilu Rd",,,Kamuela,HI,"Hawaii County",96743,US,"TIGER/Line® dataset from the US Census Bureau"
"San Clemente, CA",USA,33.42362,-117.606843,1,place,,,,,"San Clemente",CA,"Orange County",92672,US,"TIGER/Line® dataset from the US Census Bureau"
"LaGrange, Ind.",USA,41.53283,-85.08108,0.5,place,,,,,Hudson,IN,"Steuben County",46747,US,"TIGER/Line® dataset from the US Census Bureau"
"Clover, S.C.",USA,35.0415,-81.144899,0.9,street_center,,"Clover Cir",,,York,SC,"York County",29745,US,"TIGER/Line® dataset from the US Census Bureau"
"Evans, GA.",USA,33.551132,-82.143617,1,place,,,,,Evans,GA,"Columbia County",30809,US,"TIGER/Line® dataset from the US Census Bureau"
"Asheville, N.C.",USA,35.616336,-82.65124,0.8,street_center,,"Asheville Springs Cir",,,Asheville,NC,"Buncombe County",28806,US,"TIGER/Line® dataset from the US Census Bureau"
"Fayetteville, N.C.",USA,35.006282,-79.181299,0.9,street_center,,"Fayetteville Rd",,,Raeford,NC,"Hoke County",28376,US,"TIGER/Line® dataset from the US Census Bureau"
"Scott Depot, W.Va.",USA,38.121793,-76.79025,0.75,place,,,,,Zacata,VA,"Westmoreland County",22581,US,"TIGER/Line® dataset from the US Census Bureau"
"Easley, S.C.",USA,34.872646,-82.883648,0.9,street_center,,"Easley Pt",,,"Six Mile",SC,"Pickens County",29682,US,"TIGER/Line® dataset from the US Census Bureau"
"Mount Pleasant, S.C.",USA,32.847273,-79.820563,0.5,place,,,,,"Mount Pleasant",SC,"Charleston County",29464,US,"TIGER/Line® dataset from the US Census Bureau"
"Supply, N.C.",USA,34.019719,-78.263738,0.9,street_center,,"Supply St SE",,,Supply,NC,"Brunswick County",28462,US,"TIGER/Line® dataset from the US Census Bureau"
"Golden Valley, Minn.",USA,0,0,0,,,,,,,,,,,
"DeForest, Wis.",USA,43.246871,-89.334662,1,street_center,,"Deforest St",,,"De Forest",WI,"Dane County",53532,US,"TIGER/Line® dataset from the US Census Bureau"
"Wilmington, N.C.",USA,34.24247,-77.886998,1,street_center,,"Wilmington Ave",,,Wilmington,NC,"New Hanover County",28403,US,"TIGER/Line® dataset from the US Census Bureau"
"Plymouth, Mich.",USA,41.915441,-70.912045,0.9,street_center,,"Plymouth St",,,Middleboro,MA,"Plymouth County",02346,US,"TIGER/Line® dataset from the US Census Bureau"
"Mt. Pleasant, S.C.",USA,32.847273,-79.820563,0.5,place,,,,,"Mount Pleasant",SC,"Charleston County",29464,US,"TIGER/Line® dataset from the US Census Bureau"
"Cranbury, N.J.",USA,40.313995,-74.588298,0.95,street_center,,"Cranbury Cir",,,Cranbury,NJ,"Middlesex County",08512,US,"TIGER/Line® dataset from the US Census Bureau"
"Burnt Hills, N.Y.",USA,42.923676,-73.911768,0.5,place,,,,,"Burnt Hills",NY,"Saratoga County",12027,US,"TIGER/Line® dataset from the US Census Bureau"
"McLean, Va.",USA,38.930794,-77.169721,1,street_center,,"McLean Ct",,,"Mc Lean",VA,"Fairfax County",22101,US,"TIGER/Line® dataset from the US Census Bureau"
"Hedgesville, W.Va.",USA,0,0,0,,,,,,,,,,,
"Pauline, S.C.",USA,34.83318,-81.87232,0.5,place,,,,,Pauline,SC,"Spartanburg County",29374,US,"TIGER/Line® dataset from the US Census Bureau"
"Florence, S.C.",USA,33.820955,-79.44134,0.9,street_center,,"Florence Ave",,,Johnsonville,SC,"Florence County",29555,US,"TIGER/Line® dataset from the US Census Bureau"
"Ho-Ho-Kus, N.J.",USA,40.998882,-74.096848,1,place,,,,,Ho-Ho-Kus,NJ,"Bergen County",07423,US,"TIGER/Line® dataset from the US Census Bureau"
"Oregon, Ill.",USA,0,0,0,,,,,,,,,,,
"Delmont, Penn.",USA,0,0,0,,,,,,,,,,,
"Statesville, N.C.",USA,35.819209,-80.871377,0.9,street_center,,"N Statesville Dr",,,Statesville,NC,"Iredell County",28625,US,"TIGER/Line® dataset from the US Census Bureau"
"Albuquerque, N.M.",USA,35.199592,-106.644831,0.5,place,,,,,Albuquerque,NM,"Sandoval County",87101,US,"TIGER/Line® dataset from the US Census Bureau"
"Carson City, Nev.",USA,39.207849,-119.80377,1,street_center,,"Carson St",,,"Carson City",NV,"Carson City",89703,US,"TIGER/Line® dataset from the US Census Bureau"
"Wilkesboro, N.C.",USA,36.151674,-81.144673,1,street_center,,"Wilkesboro Blvd",,,Wilkesboro,NC,"Wilkes County",28697,US,"TIGER/Line® dataset from the US Census Bureau"
"Hartland, Wis.",USA,0,0,0,,,,,,,,,,,
"Goldsboro, N.C.",USA,35.425975,-77.971149,0.6,street_center,,"Goldsboro Byp",,,Goldsboro,NC,"Wayne County",27530,US,"TIGER/Line® dataset from the US Census Bureau"
"Lancaster, N.Y.",USA,42.890058,-78.678047,1,street_center,,"Lancaster Ave",,,Lancaster,NY,"Erie County",14086,US,"TIGER/Line® dataset from the US Census Bureau"
"Coeur d'Alene, Idaho",USA,47.97368,-116.830349,0.9,street_center,,"Coeur D'alene Dr",,,"Spirit Lake",ID,"Kootenai County",83869,US,"TIGER/Line® dataset from the US Census Bureau"
"Troy, ID",USA,46.721117,-116.985233,0.9,street_center,,"Troy Rd",,,Moscow,ID,"Latah County",83843,US,"TIGER/Line® dataset from the US Census Bureau"
"Aitkin, Minn.",USA,0,0,0,,,,,,,,,,,
"St. Paul, Minn.",USA,0,0,0,,,,,,,,,,,
"Matthews, N.C.",USA,35.115772,-80.715254,0.9,street_center,,"E Matthews St",,,Matthews,NC,"Mecklenburg County",28105,US,"TIGER/Line® dataset from the US Census Bureau"
"Greensboro, N.C.",USA,36.079478,-79.747227,1,street_center,,"Greensboro St",,,Greensboro,NC,"Guilford County",27401,US,"TIGER/Line® dataset from the US Census Bureau"
"Mantorville, Minn.",USA,0,0,0,,,,,,,,,,,
"Winterville, N.C.",USA,35.531961,-77.396671,0.95,street_center,,"Winterville Ct",,,Winterville,NC,"Pitt County",28590,US,"TIGER/Line® dataset from the US Census Bureau"
"College Station, TX",USA,30.628752,-96.348007,1,street_center,,"College Ave",,,"College Station",TX,"Brazos County",77840,US,"TIGER/Line® dataset from the US Census Bureau"
"Ridgewood, N.J.",USA,40.981555,-74.054898,1,street_center,,"Ridgewood Rd",,,Paramus,NJ,"Bergen County",07676,US,"TIGER/Line® dataset from the US Census Bureau"
"Helotes, TX",USA,29.613706,-98.757954,0.7,street_center,,"Helotes Springs Rd",,,"San Antonio",TX,"Bexar County",78254,US,"TIGER/Line® dataset from the US Census Bureau"
"West Orange, N.J.",USA,40.79283,-74.231858,1,street_center,,"Orange Pl",,,"West Orange",NJ,"Essex County",07052,US,"TIGER/Line® dataset from the US Census Bureau"
"Huntington, N.Y.",USA,40.888492,-73.404044,0.9,street_center,,"Huntington Bay Rd",,,Huntington,NY,"Suffolk County",11743,US,"TIGER/Line® dataset from the US Census Bureau"
"Ithaca, N.Y.",USA,42.439356,-76.479342,1,street_center,,"Ithaca Rd",,,Ithaca,NY,"Tompkins County",14850,US,"TIGER/Line® dataset from the US Census Bureau"
"Buffalo, N.Y.",USA,42.773669,-78.834522,1,street_center,,"Buffalo Ave",,,Buffalo,NY,"Erie County",14219,US,"TIGER/Line® dataset from the US Census Bureau"
"Rochester, N.Y.",USA,43.027147,-77.744214,0.9,street_center,,"Rochester St",,,Scottsville,NY,"Monroe County",14546,US,"TIGER/Line® dataset from the US Census Bureau"
"Cold Spring, KY.",USA,37.734249,-85.21065,1,place,,,,,Springfield,KY,"Washington County",40069,US,"TIGER/Line® dataset from the US Census Bureau"
"Lexington, S.C.",USA,34.166037,-81.349787,0.9,street_center,,"Lexington St",,,Chapin,SC,"Lexington County",29036,US,"TIGER/Line® dataset from the US Census Bureau"
"Monroe, N.C.",USA,35.074176,-80.527827,0.5,place,,,,,Monroe,NC,"Union County",28110,US,"TIGER/Line® dataset from the US Census Bureau"
"Westfield, N.J.",USA,40.643683,-74.345346,1,street_center,,"Westfield Ave",,,Westfield,NJ,"Union County",07090,US,"TIGER/Line® dataset from the US Census Bureau"
"Goshen, N.Y.",USA,41.365644,-74.333915,1,street_center,,"Goshen Trl",,,Goshen,NY,"Orange County",10924,US,"TIGER/Line® dataset from the US Census Bureau"
"Linden, N.J.",USA,40.625619,-74.253847,0.9,street_center,,"W Linden Ave",,,Linden,NJ,"Union County",07036,US,"TIGER/Line® dataset from the US Census Bureau"
"South Glenn Falls, N.Y.",USA,43.313904,-73.651747,0.9,street_center,,"Glen St",,,"Glens Falls",NY,"Warren County",12801,US,"TIGER/Line® dataset from the US Census Bureau"
"Fairburn, GA",USA,33.766641,-84.500239,0.9,street_center,,"Fairburn Pl",,,Atlanta,GA,"Fulton County",30331,US,"TIGER/Line® dataset from the US Census Bureau"
"Woodbridge, VA",USA,38.663571,-77.254964,1,street_center,,"Woodbridge St",,,Woodbridge,VA,"Prince William County",22191,US,"TIGER/Line® dataset from the US Census Bureau"
"Bloomfield, NJ",USA,40.786513,-74.193691,1,street_center,,"Bloomfield Ave",,,Bloomfield,NJ,"Essex County",07003,US,"TIGER/Line® dataset from the US Census Bureau"
"Noblesville, IN",USA,40.073328,-85.999521,0.5,place,,,,,Noblesville,IN,"Hamilton County",46060,US,"TIGER/Line® dataset from the US Census Bureau"
"Bohemia, NY",USA,40.760138,-73.103175,1,street_center,,"Bohemia Pkwy",,,Bohemia,NY,"Suffolk County",11716,US,"TIGER/Line® dataset from the US Census Bureau"
"McKinney, TX",USA,33.195622,-96.618766,1,street_center,,"McKinney St",,,McKinney,TX,"Collin County",75069,US,"TIGER/Line® dataset from the US Census Bureau"
"Chicago, IL",USA,41.757196,-87.593762,0.9,street_center,,"S Chicago",,,Chicago,IL,"Cook County",60619,US,"TIGER/Line® dataset from the US Census Bureau"
"South Fulton, GA",USA,0,0,0,,,,,,,,,,,
"Missouri City, TX",USA,29.714639,-94.994166,0.9,street_center,,Missouri,,,Baytown,TX,"Harris County",77520,US,"TIGER/Line® dataset from the US Census Bureau"
"Plainfield, IL",USA,41.637301,-88.289039,0.9,street_center,,"Plainfield Rd",,,Oswego,IL,"Kendall County",60543,US,"TIGER/Line® dataset from the US Census Bureau"
"Los Angeles, CA",USA,34.091866,-117.982696,0.9,street_center,,"Los Angeles St",,,"Baldwin Park",CA,"Los Angeles County",91706,US,"TIGER/Line® dataset from the US Census Bureau"
"Hoover, AL",USA,33.405387,-86.811378,0.9,place,,,,,Hoover,AL,"Jefferson County",35236,US,"TIGER/Line® dataset from the US Census Bureau"
"Fishers, IN",USA,39.955941,-86.03875,1,street_center,,"Fishers Dr",,,Fishers,IN,"Hamilton County",46038,US,"TIGER/Line® dataset from the US Census Bureau"
"The Woodlands, TX",USA,30.159213,-95.495054,1,street_center,,"Woodlands Pkwy",,,Spring,TX,"Montgomery County",77381,US,"TIGER/Line® dataset from the US Census Bureau"
"Oklahoma City, OK",USA,35.49736,-97.510136,0.86,street_center,,"N Oklahoma Ave",,,"Oklahoma City",OK,"Oklahoma County",73105,US,"TIGER/Line® dataset from the US Census Bureau"
"Rockland, N.Y.",USA,41.032213,-73.919727,0.9,street_center,,"Rockland Rd",,,Sparkill,NY,"Rockland County",10976,US,"TIGER/Line® dataset from the US Census Bureau"
"Laurel, MD",USA,39.088031,-76.860903,1,street_center,,"Laurel Pl",,,Laurel,MD,"Prince George's County",20707,US,"TIGER/Line® dataset from the US Census Bureau"
"Bridgeville, PA",USA,40.35618,-80.11006,1,place,,,,,Bridgeville,PA,"Allegheny County",15017,US,"TIGER/Line® dataset from the US Census Bureau"
"Hempstead, NY",USA,40.682247,-73.627141,1,street_center,,"Hempstead Ave",,,Hempstead,NY,"Nassau County",11550,US,"TIGER/Line® dataset from the US Census Bureau"
"Baton Rouge, LA",USA,30.489629,-91.165999,1,street_center,,"Baton Rouge Ave",,,"Baton Rouge",LA,"East Baton Rouge Parish",70805,US,"TIGER/Line® dataset from the US Census Bureau"
"Sandy, UT",USA,40.572334,-111.88129,1,street_center,,"Sandy Cir",,,Sandy,UT,"Salt Lake County",84070,US,"TIGER/Line® dataset from the US Census Bureau"
"Grand Rapids, MI",USA,42.717804,-85.461847,0.9,street_center,,"Grand Rapids St",,,Middleville,MI,"Barry County",49333,US,"TIGER/Line® dataset from the US Census Bureau"
"Birmingham, AL",USA,33.571137,-86.765344,1,street_center,,"Birmingham St",,,Birmingham,AL,"Jefferson County",35217,US,"TIGER/Line® dataset from the US Census Bureau"
"Baltimore, MD",USA,39.234683,-76.633662,0.9,street_center,,"Baltimore St",,,Halethorpe,MD,"Baltimore County",21227,US,"TIGER/Line® dataset from the US Census Bureau"
"Frisco, TX",USA,33.158154,-96.834002,1,street_center,,"Frisco St",,,Frisco,TX,"Collin County",75034,US,"TIGER/Line® dataset from the US Census Bureau"
"New Orleans, LA",USA,29.985785,-90.06659,1,street_center,,"New Orleans St",,,"New Orleans",LA,"Orleans Parish",70119,US,"TIGER/Line® dataset from the US Census Bureau"
"Baytown, TX",USA,29.753657,-94.946316,1,street_center,,"Baytown Loop",,,Baytown,TX,"Harris County",77520,US,"TIGER/Line® dataset from the US Census Bureau"
"Fontana, CA",USA,34.081336,-117.462412,1,street_center,,"Fontana Ave",,,Fontana,CA,"San Bernardino County",92335,US,"TIGER/Line® dataset from the US Census Bureau"
"Fresno, CA",USA,36.73277,-119.796974,1,street_center,,"Fresno St",,,Fresno,CA,"Fresno County",93706,US,"TIGER/Line® dataset from the US Census Bureau"
"Fort Worth, TX",USA,32.730347,-97.226343,1,street_center,,"Ft Worth Ave",,,"Fort Worth",TX,"Tarrant County",76112,US,"TIGER/Line® dataset from the US Census Bureau"
"Hopkins, Minn.",USA,0,0,0,,,,,,,,,,,
"Morristown, N.J.",USA,40.427739,-74.248013,1,street_center,,"Morristown Rd",,,Matawan,NJ,"Middlesex County",07747,US,"TIGER/Line® dataset from the US Census Bureau"
"Mt. Vernon, Ind.",USA,0,0,0,,,,,,,,,,,
"Carolina, P.R.",USA,18.379441,-65.957695,0.5,place,,,,,Carolina,PR,"Carolina Municipio",00979,US,"TIGER/Line® dataset from the US Census Bureau"
"Yonkers, N.Y.",USA,40.929965,-73.870242,1,street_center,,"Yonkers Ave",,,Yonkers,NY,"Westchester County",10704,US,"TIGER/Line® dataset from the US Census Bureau"
"Princeton Junction, N.J.",USA,40.302196,-74.6204,1,street_center,,"Princeton Pl",,,"Princeton Junction",NJ,"Mercer County",08550,US,"TIGER/Line® dataset from the US Census Bureau"
"Bayamón, P.R.",USA,18.326702,-66.174176,0.5,place,,,,,Bayamon,PR,"Bayamón Municipio",00956,US,"TIGER/Line® dataset from the US Census Bureau"
"San Juan, P.R.",USA,18.465299,-66.116666,0.5,place,,,,,"San Juan",PR,"San Juan Municipio",00901,US,"TIGER/Line® dataset from the US Census Bureau"
"McPherson, Kan.",USA,38.385848,-97.429192,1,street_center,,McPherson,,,Canton,KS,"McPherson County",67428,US,"TIGER/Line® dataset from the US Census Bureau"
"Caguas, P.R.",USA,18.212965,-66.058033,0.5,place,,,,,Caguas,PR,"Caguas Municipio",00726,US,"TIGER/Line® dataset from the US Census Bureau"
"Ponce, P.R.",USA,17.990567,-66.607542,1,place,,,,,Ponce,PR,"Ponce Municipio",00716,US,"TIGER/Line® dataset from the US Census Bureau"
"Shakopee, Minn.",USA,0,0,0,,,,,,,,,,,
"Pewaukee, WI",USA,43.07705,-88.225251,1,street_center,,"Pewaukee Rd",,,Pewaukee,WI,"Waukesha County",53072,US,"TIGER/Line® dataset from the US Census Bureau"
"Bear, DE",USA,39.594736,-75.693903,0.5,place,,,,,Bear,DE,"New Castle County",19701,US,"TIGER/Line® dataset from the US Census Bureau"
"Peachtree City, GA",USA,33.413162,-84.572569,0.9,street_center,,"N Peachtree Pkwy",,,"Peachtree City",GA,"Fayette County",30269,US,"TIGER/Line® dataset from the US Census Bureau"
"Erie, CO",USA,40.081415,-104.948195,0.9,street_center,,"Erica Ct",,,Dacono,CO,"Weld County",80514,US,"TIGER/Line® dataset from the US Census Bureau"
"Marietta, GA",USA,33.941329,-84.528197,0.9,street_center,,"S Marietta Pkwy",,,Marietta,GA,"Cobb County",30060,US,"TIGER/Line® dataset from the US Census Bureau"
"Flemington, NJ",USA,40.516985,-74.865241,1,street_center,,"Flemington Gdns",,,Flemington,NJ,"Hunterdon County",08822,US,"TIGER/Line® dataset from the US Census Bureau"
"Massapequa, NY",USA,40.665811,-73.473343,1,street_center,,"Massapequa Ave",,,Massapequa,NY,"Nassau County",11758,US,"TIGER/Line® dataset from the US Census Bureau"
"Ypsilanti, MI",USA,42.202139,-83.620494,1,place,,,,,Ypsilanti,MI,"Washtenaw County",48197,US,"TIGER/Line® dataset from the US Census Bureau"
"Smithtown, NY",USA,40.847148,-73.170573,1,street_center,,"Smithtown Byp",,,Smithtown,NY,"Suffolk County",11787,US,"TIGER/Line® dataset from the US Census Bureau"
"Aliso Viejo, CA",USA,33.570199,-117.73043,1,street_center,,"Aliso Viejo Pkwy",,,"Aliso Viejo",CA,"Orange County",92656,US,"TIGER/Line® dataset from the US Census Bureau"
"North Wales, PA",USA,40.205502,-75.282619,1,street_center,,"N Wales Rd",,,"North Wales",PA,"Montgomery County",19454,US,"TIGER/Line® dataset from the US Census Bureau"
"New York, NY",USA,40.702341,-74.010262,1,street_center,,"New York Plz",,,"New York",NY,"New York County",10004,US,"TIGER/Line® dataset from the US Census Bureau"
"Carson City, Nevada",USA,39.207849,-119.80377,1,street_center,,"Carson St",,,"Carson City",NV,"Carson City",89703,US,"TIGER/Line® dataset from the US Census Bureau"
"Brighton, MI.",USA,42.528426,-83.828755,1,street_center,,"Brighton Rd",,,Brighton,MI,"Livingston County",48116,US,"TIGER/Line® dataset from the US Census Bureau"
"Tomball, TX.",USA,30.08672,-95.631918,1,street_center,,"Tomball Pkwy",,,Tomball,TX,"Harris County",77375,US,"TIGER/Line® dataset from the US Census Bureau"
"Middleton, ID.",USA,43.693483,-116.613139,0.9,street_center,,"Middleton Rd",,,Caldwell,ID,"Canyon County",83605,US,"TIGER/Line® dataset from the US Census Bureau"
"San Antonio, TX.",USA,29.456919,-98.528097,1,street_center,,"San Antonio Ave",,,"San Antonio",TX,"Bexar County",78201,US,"TIGER/Line® dataset from the US Census Bureau"
"Layton, UT.",USA,41.077345,-111.992163,1,street_center,,"Laytona Dr",,,Layton,UT,"Davis County",84041,US,"TIGER/Line® dataset from the US Census Bureau"
"Long Beach, CA.",USA,33.876382,-118.203508,0.95,street_center,,"Long Beach Blvd",,,"Long Beach",CA,"Los Angeles County",90805,US,"TIGER/Line® dataset from the US Census Bureau"
"Tempe, AZ.",USA,33.420511,-111.89534,0.9,street_center,,"S Tempe Ct",,,Tempe,AZ,"Maricopa County",85281,US,"TIGER/Line® dataset from the US Census Bureau"
"Sugar Land, TX.",USA,29.619921,-95.636637,1,street_center,,"Sugarland St",,,"Sugar Land",TX,"Fort Bend County",77498,US,"TIGER/Line® dataset from the US Census Bureau"
"Missouri City, TX.",USA,29.714639,-94.994166,0.9,street_center,,Missouri,,,Baytown,TX,"Harris County",77520,US,"TIGER/Line® dataset from the US Census Bureau"
"North Kingstown, RI",USA,41.450173,-71.493429,0.9,street_center,,"Kingstown Rd",,,Wakefield,RI,"Washington County",02879,US,"TIGER/Line® dataset from the US Census Bureau"
"Fultonville, N.Y.",USA,42.877533,-74.404477,1,place,,,,,Fultonville,NY,"Montgomery County",12072,US,"TIGER/Line® dataset from the US Census Bureau"
"Hudson, N.H.",USA,42.790451,-71.370909,1,street_center,,"Hudson Hls",,,Hudson,NH,"Hillsborough County",03051,US,"TIGER/Line® dataset from the US Census Bureau"
"Lynnfield, MA",USA,42.495313,-70.970565,0.9,street_center,,"Lynnfield St",,,Lynn,MA,"Essex County",01904,US,"TIGER/Line® dataset from the US Census Bureau"
"Andover, MA",USA,42.694638,-71.158713,0.9,street_center,,"Andover St",,,Lawrence,MA,"Essex County",01843,US,"TIGER/Line® dataset from the US Census Bureau"
"Mount Vernon, Ind.",USA,42.773711,-72.520166,1,place,,,,,Vernon,VT,"Windham County",05354,US,"TIGER/Line® dataset from the US Census Bureau"
"Ham Lake, Minn.",USA,0,0,0,,,,,,,,,,,
"Blue Ash, Ohio",USA,0,0,0,,,,,,,,,,,
"Lake Odessa, MIch.",USA,42.5092,-84.65581,0.5,place,,,,,"Eaton Rapids",MI,"Eaton County",48827,US,"TIGER/Line® dataset from the US Census Bureau"
"Joliet, MT",USA,45.597999,-109.198688,0.9,street_center,,"Joliet Rd",,,Columbus,MT,"Stillwater County",59019,US,"TIGER/Line® dataset from the US Census Bureau"
"Great Falls, MT",USA,47.511219,-111.2755,1,place,,,,,"Great Falls",MT,"Cascade County",59401,US,"TIGER/Line® dataset from the US Census Bureau"
"Diller, NE",USA,40.10945,-96.93503,1,place,,,,,Diller,NE,"Jefferson County",68342,US,"TIGER/Line® dataset from the US Census Bureau"
"Belleview, FL",USA,29.053715,-82.038906,1,place,,,,,Belleview,FL,"Marion County",34420,US,"TIGER/Line® dataset from the US Census Bureau"
"Helena, MT",USA,46.595047,-112.029171,1,street_center,,"Helena Ave",,,Helena,MT,"Lewis And Clark County",59601,US,"TIGER/Line® dataset from the US Census Bureau"
"Parker, CO",USA,39.471341,-104.758434,1,street_center,,"Parker Rd",,,Parker,CO,"Douglas County",80134,US,"TIGER/Line® dataset from the US Census Bureau"
"Idaho Falls, ID",USA,43.512131,-111.963699,1,street_center,,"Idaho St",,,"Idaho Falls",ID,"Bonneville County",83401,US,"TIGER/Line® dataset from the US Census Bureau"
"Ennis, MT",USA,45.346687,-111.728933,1,street_center,,"Ennis St",,,Ennis,MT,"Madison County",59729,US,"TIGER/Line® dataset from the US Census Bureau"
"Bozeman, MT",USA,45.592303,-111.197823,0.9,street_center,,"Bozeman St",,,"Gallatin Gateway",MT,"Gallatin County",59730,US,"TIGER/Line® dataset from the US Census Bureau"
"Omaha, NE",USA,41.213077,-95.932175,0.9,street_center,,"S Omaha Brg",,,Omaha,NE,"Douglas County",68107,US,"TIGER/Line® dataset from the US Census Bureau"
"Carson City, NV",USA,39.207849,-119.80377,1,street_center,,"Carson St",,,"Carson City",NV,"Carson City",89703,US,"TIGER/Line® dataset from the US Census Bureau"
"Truckee, CA",USA,39.3781,-120.186383,1,place,,,,,Truckee,CA,"Nevada County",96160,US,"TIGER/Line® dataset from the US Census Bureau"
"Sylvania, OH",USA,41.688654,-83.725223,1,street_center,,"Sylvania Ave",,,Sylvania,OH,"Lucas County",43560,US,"TIGER/Line® dataset from the US Census Bureau"
"Woodbury, MN",USA,44.932011,-92.903273,0.9,street_center,,"Woodbury Dr",,,"Saint Paul",MN,"Washington County",55129,US,"TIGER/Line® dataset from the US Census Bureau"
"Coeur d'Alene, ID",USA,47.97368,-116.830349,0.9,street_center,,"Coeur D'alene Dr",,,"Spirit Lake",ID,"Kootenai County",83869,US,"TIGER/Line® dataset from the US Census Bureau"
"Denton, TX",USA,33.218786,-97.13895,1,street_center,,"Denton St",,,Denton,TX,"Denton County",76201,US,"TIGER/Line® dataset from the US Census Bureau"
"Kuna, ID",USA,43.488171,-116.514218,1,street_center,,"Kuna Rd",,,Kuna,ID,"Canyon County",83634,US,"TIGER/Line® dataset from the US Census Bureau"
"Gillette, WY",USA,44.287063,-105.504424,0.9,street_center,,"S Gillette Ave",,,Gillette,WY,"Campbell County",82716,US,"TIGER/Line® dataset from the US Census Bureau"
"San Leandro, CA",USA,37.728142,-122.164212,1,street_center,,"San Leandro",,,"San Leandro",CA,"Alameda County",94577,US,"TIGER/Line® dataset from the US Census Bureau"
"Elizabethtown, KY",USA,37.685206,-85.863048,0.6,street_center,,"Elizabethtown Byp",,,Elizabethtown,KY,"Hardin County",42701,US,"TIGER/Line® dataset from the US Census Bureau"
"Auberry, CA",USA,37.08086,-119.452719,1,street_center,,"Auberry Rd",,,Auberry,CA,"Fresno County",93602,US,"TIGER/Line® dataset from the US Census Bureau"
"Manhattan Beach, CA",USA,33.887624,-118.318018,0.9,street_center,,"Manhattan Beach Blvd",,,Gardena,CA,"Los Angeles County",90249,US,"TIGER/Line® dataset from the US Census Bureau"
"Crestview Hills, KY",USA,39.024189,-84.572432,1,street_center,,"Crestview Hills Mall Rd",,,"Ft Mitchell",KY,"Kenton County",41017,US,"TIGER/Line® dataset from the US Census Bureau"
"Bridgeport, WV",USA,39.309303,-80.282306,1,place,,,,,Bridgeport,WV,"Harrison County",26330,US,"TIGER/Line® dataset from the US Census Bureau"
"Stokesdale, N.C.",USA,36.240525,-79.984141,1,street_center,,"Stokesdale St",,,Stokesdale,NC,"Guilford County",27357,US,"TIGER/Line® dataset from the US Census Bureau"
"Pennington, N.J.",USA,40.32863,-74.813557,0.5,place,,,,,Pennington,NJ,"Mercer County",08534,US,"TIGER/Line® dataset from the US Census Bureau"
"Carolina Beach, N.C.",USA,34.145529,-77.899244,0.9,street_center,,"Carolina Beach Rd",,,Wilmington,NC,"New Hanover County",28412,US,"TIGER/Line® dataset from the US Census Bureau"
"Durham, N.C.",USA,35.949721,-78.983725,0.9,street_center,,"SW Durham Dr",,,Durham,NC,"Durham County",27707,US,"TIGER/Line® dataset from the US Census Bureau"
"Pinehurst, N.C.",USA,35.463801,-79.170734,0.9,street_center,,"Pinehurst St",,,Sanford,NC,"Lee County",27330,US,"TIGER/Line® dataset from the US Census Bureau"
"Maplewood, Minn.",USA,0,0,0,,,,,,,,,,,
"Verona, Wis.",USA,0,0,0,,,,,,,,,,,
"Olean, NY",USA,42.572861,-78.4783,0.9,street_center,,"Olean Rd",,,Chaffee,NY,"Erie County",14030,US,"TIGER/Line® dataset from the US Census Bureau"
"Chardon, OH",USA,41.580506,-81.231911,1,street_center,,"Chardon Rd",,,Chardon,OH,"Geauga County",44024,US,"TIGER/Line® dataset from the US Census Bureau"
"Lexington, KY",USA,38.145429,-84.351156,1,street_center,,"Lexington Rd",,,Lexington,KY,"Bourbon County",40511,US,"TIGER/Line® dataset from the US Census Bureau"
"Scarsdale, NY",USA,40.965345,-73.826536,0.9,street_center,,"Scarsdale Rd",,,Tuckahoe,NY,"Westchester County",10707,US,"TIGER/Line® dataset from the US Census Bureau"
"Dublin, OH",USA,40.061318,-83.110995,0.9,street_center,,"Dublin Rd",,,Hilliard,OH,"Franklin County",43026,US,"TIGER/Line® dataset from the US Census Bureau"
"Northbrook, IL",USA,42.151778,-87.81728,1,street_center,,"Northbrook Ct",,,Northbrook,IL,"Cook County",60062,US,"TIGER/Line® dataset from the US Census Bureau"
"Goodyear, AZ",USA,33.429345,-112.364977,1,street_center,,"Goodyear Pkwy",,,Goodyear,AZ,"Maricopa County",85338,US,"TIGER/Line® dataset from the US Census Bureau"
"Syracuse, N.Y.",USA,43.048934,-76.179761,1,street_center,,"Syracuse St",,,Syracuse,NY,"Onondaga County",13204,US,"TIGER/Line® dataset from the US Census Bureau"
"Canonsburg, PA",USA,40.26257,-80.18728,1,place,,,,,Canonsburg,PA,"Washington County",15317,US,"TIGER/Line® dataset from the US Census Bureau"
"Mine Hill, N.J.",USA,40.84811,-74.819826,0.9,street_center,,"Mine Hill Rd",,,Hackettstown,NJ,"Morris County",07840,US,"TIGER/Line® dataset from the US Census Bureau"
"Northville, MI",USA,42.403221,-83.469416,1,street_center,,"Northville Rd",,,Northville,MI,"Wayne County",48167,US,"TIGER/Line® dataset from the US Census Bureau"
"Grove City, OH",USA,39.882362,-83.107896,1,street_center,,"Grove City Rd",,,"Grove City",OH,"Franklin County",43123,US,"TIGER/Line® dataset from the US Census Bureau"
"New Baltimore, MI",USA,42.599256,-82.878242,0.9,street_center,,"New St",,,"Mount Clemens",MI,"Macomb County",48043,US,"TIGER/Line® dataset from the US Census Bureau"
"Spring Branch, TX",USA,29.864548,-98.457454,1,street_center,,"Spring Branch Rd",,,"Spring Branch",TX,"Comal County",78070,US,"TIGER/Line® dataset from the US Census Bureau"
"Breinigsville, PA",USA,40.53676,-75.6313,0.5,place,,,,,Breinigsville,PA,"Lehigh County",18031,US,"TIGER/Line® dataset from the US Census Bureau"
"Bolivar, OH",USA,40.618002,-81.449534,0.5,place,,,,,Bolivar,OH,"Tuscarawas County",44612,US,"TIGER/Line® dataset from the US Census Bureau"
"Canton, GA",USA,34.255299,-84.495229,1,street_center,,"Canton Ln",,,Canton,GA,"Cherokee County",30114,US,"TIGER/Line® dataset from the US Census Bureau"
"Belleville, IL",USA,38.601271,-89.819323,0.9,street_center,,"Belleville St",,,Lebanon,IL,"St. Clair County",62254,US,"TIGER/Line® dataset from the US Census Bureau"
"Alexandria, VA",USA,38.746465,-77.049598,1,street_center,,"Alexandria Ave",,,Wellington,VA,"Fairfax County",22308,US,"TIGER/Line® dataset from the US Census Bureau"
"Newtown, PA",USA,40.8858,-78.32731,0.8,place,,,,,"New Town",PA,"Clearfield County",16666,US,"TIGER/Line® dataset from the US Census Bureau"
"Madison, WI",USA,43.060926,-88.230636,0.5,place,,,,,Madison,WI,"Waukesha County",53702,US,"TIGER/Line® dataset from the US Census Bureau"
"Toms River, NJ",USA,40.003985,-74.236858,1,street_center,,"Toms River Rd",,,"Toms River",NJ,"Ocean County",08757,US,"TIGER/Line® dataset from the US Census Bureau"
"Colonia, NJ",USA,40.580145,-74.294991,1,street_center,,"Colonia Pl",,,Colonia,NJ,"Middlesex County",07067,US,"TIGER/Line® dataset from the US Census Bureau"
"Waupaca, WI",USA,44.39573,-88.746016,0.9,street_center,,"Waupaca St",,,"New London",WI,"Waupaca County",54961,US,"TIGER/Line® dataset from the US Census Bureau"
"Wildomar, CA",USA,33.642886,-117.289895,0.9,street_center,,"Wildomar Rd",,,"Lake Elsinore",CA,"Riverside County",92530,US,"TIGER/Line® dataset from the US Census Bureau"
"Union, NJ",USA,40.692651,-74.269841,1,place,,,,,Union,NJ,"Union County",07083,US,"TIGER/Line® dataset from the US Census Bureau"
"Fort Wayne, IN",USA,41.065397,-85.15842,0.5,place,,,,,"Fort Wayne",IN,"Allen County",46802,US,"TIGER/Line® dataset from the US Census Bureau"
"Topsail Beach, N.C.",USA,34.350371,-77.651525,1,street_center,,"Topsail Dr",,,"Holly Ridge",NC,"Pender County",28445,US,"TIGER/Line® dataset from the US Census Bureau"
"Santa Teresa, N.M.",USA,31.840878,-106.606746,1,street_center,,"Santa Teresita Dr",,,"Santa Teresa",NM,"Doña Ana County",88008,US,"TIGER/Line® dataset from the US Census Bureau"
"Verona, N.Y.",USA,43.084,-75.541929,0.9,street_center,,"Verona St",,,Vernon,NY,"Oneida County",13476,US,"TIGER/Line® dataset from the US Census Bureau"
"West Hempstead, N.Y.",USA,40.690251,-73.653023,0.5,place,,,,,"West Hempstead",NY,"Nassau County",11552,US,"TIGER/Line® dataset from the US Census Bureau"
"Arecibo, P.R.",USA,18.402239,-66.7114,1,place,,,,,Arecibo,PR,"Arecibo Municipio",00612,US,"TIGER/Line® dataset from the US Census Bureau"
"Tirana, Albania",USA,29.902548,-91.632609,1,street_center,,Trina,,,Jeanerette,LA,"St. Mary Parish",70544,US,"TIGER/Line® dataset from the US Census Bureau"
"LaGrangeville, N.Y.",USA,41.692457,-73.898951,0.9,street_center,,"Lagrange Ave",,,Poughkeepsie,NY,"Dutchess County",12603,US,"TIGER/Line® dataset from the US Census Bureau"
"Montvale, N.J.",USA,41.046486,-74.027098,1,street_center,,"Montvale Ave",,,Montvale,NJ,"Bergen County",07645,US,"TIGER/Line® dataset from the US Census Bureau"
"Little Neck, N.Y.",USA,40.770971,-73.751389,1,street_center,,"Little Neck Rd",,,"Little Neck",NY,"Queens County",11363,US,"TIGER/Line® dataset from the US Census Bureau"
"Morehead, KY.",USA,38.274896,-83.546537,0.9,street_center,,"Morehead Rd",,,Wallingford,KY,"Fleming County",41093,US,"TIGER/Line® dataset from the US Census Bureau"
"Morgantown, W.V.",USA,39.619016,-79.949538,1,street_center,,"Morgantown Ave",,,Morgantown,WV,"Monongalia County",26501,US,"TIGER/Line® dataset from the US Census Bureau"
"Grandy, N.C.",USA,36.232849,-75.886099,1,street_center,,"Grandy Rd",,,Grandy,NC,"Currituck County",27939,US,"TIGER/Line® dataset from the US Census Bureau"
"Moline, Ill.",USA,0,0,0,,,,,,,,,,,
"Prairie du Sac, Wis.",USA,43.28693,-89.72401,1,place,,,,,"Prairie Du Sac",WI,"Sauk County",53578,US,"TIGER/Line® dataset from the US Census Bureau"
"Rosemount, Minn.",USA,0,0,0,,,,,,,,,,,
"Tower, Minn.",USA,0,0,0,,,,,,,,,,,
"Saline, Mich.",USA,44.931415,-69.834764,0.75,place,,,,,Solon,ME,"Somerset County",04979,US,"TIGER/Line® dataset from the US Census Bureau"
"Rockleigh, N.J.",USA,41.000065,-73.927843,1,street_center,,"Rockleigh Rd",,,Northvale,NJ,"Bergen County",07647,US,"TIGER/Line® dataset from the US Census Bureau"
"New Hope, MN",USA,45.03802,-93.386619,0.8,place,,,,,"New Hope",MN,"Hennepin County",55428,US,"TIGER/Line® dataset from the US Census Bureau"
"Mokena, IL",USA,41.530669,-87.885537,1,street_center,,"Mokena St",,,Mokena,IL,"Will County",60448,US,"TIGER/Line® dataset from the US Census Bureau"
"Weatherford, TX",USA,32.768617,-97.796171,0.9,street_center,,"E Weatherford St",,,Weatherford,TX,"Parker County",76086,US,"TIGER/Line® dataset from the US Census Bureau"
"Akron, OH",USA,41.039691,-81.715013,0.9,street_center,,"Akron Rd",,,Wadsworth,OH,"Medina County",44281,US,"TIGER/Line® dataset from the US Census Bureau"
"River Falls, WI",USA,44.847209,-92.637475,1,street_center,,"River Hills Rd",,,"River Falls",WI,"Pierce County",54022,US,"TIGER/Line® dataset from the US Census Bureau"
"Hortonville, WI",USA,44.342058,-88.588244,1,place,,,,,Hortonville,WI,"Outagamie County",54944,US,"TIGER/Line® dataset from the US Census Bureau"
"Fairfax, VA",USA,38.844332,-77.285074,1,street_center,,"Fairfax Sq",,,Fairfax,VA,"Fairfax City",22031,US,"TIGER/Line® dataset from the US Census Bureau"
"Hilton Head Island, SC",USA,32.21319,-80.799698,1,place,,,,,"Hilton Head Island",SC,"Beaufort County",29925,US,"TIGER/Line® dataset from the US Census Bureau"
"San Juan, PR",USA,18.465299,-66.116666,0.5,place,,,,,"San Juan",PR,"San Juan Municipio",00901,US,"TIGER/Line® dataset from the US Census Bureau"
"Purcellville, VA",USA,39.179522,-77.699719,1,street_center,,"Purcellville Rd",,,Purcellville,VA,"Loudoun County",20132,US,"TIGER/Line® dataset from the US Census Bureau"
"Naperville, IL",USA,41.804863,-88.119497,1,street_center,,"Naperville Rd",,,Naperville,IL,"Dupage County",60563,US,"TIGER/Line® dataset from the US Census Bureau"
"Fort Lauderdale, FL",USA,26.121323,-80.127909,0.5,place,,,,,"Fort Lauderdale",FL,"Broward County",33301,US,"TIGER/Line® dataset from the US Census Bureau"
"Grantville, PA",USA,40.373438,-76.682667,1,place,,,,,Grantville,PA,"Dauphin County",17028,US,"TIGER/Line® dataset from the US Census Bureau"
"McDonough, Ga.",USA,33.407219,-84.169327,1,street_center,,"McDonough Pl",,,McDonough,GA,"Henry County",30253,US,"TIGER/Line® dataset from the US Census Bureau"
"Penfield, N.Y.",USA,43.128693,-77.485335,0.9,street_center,,"Penfield Rd",,,Rochester,NY,"Monroe County",14625,US,"TIGER/Line® dataset from the US Census Bureau"
"Verona, N.J.",USA,40.828956,-74.242366,1,street_center,,"Verona Pl",,,Verona,NJ,"Essex County",07044,US,"TIGER/Line® dataset from the US Census Bureau"
"Stewartsville, NJ",USA,40.713296,-75.084983,1,street_center,,"Stewartsville Rd",,,Stewartsville,NJ,"Warren County",08886,US,"TIGER/Line® dataset from the US Census Bureau"
"Santa Fe, N.M.",USA,35.503734,-106.049583,0.95,street_center,,Sandia,,,"Santa Fe",NM,"Santa Fe County",87508,US,"TIGER/Line® dataset from the US Census Bureau"
"Maple Lake, Minn.",USA,0,0,0,,,,,,,,,,,
"Miami, FL",USA,25.925062,-80.170476,1,street_center,,"Miami Dr",,,Miami,FL,"Miami-Dade County",33162,US,"TIGER/Line® dataset from the US Census Bureau"
"Kingsport, TN",USA,36.441248,-82.455832,0.9,street_center,,"Kingsport Hwy",,,"Johnson City",TN,"Washington County",37615,US,"TIGER/Line® dataset from the US Census Bureau"
"West Chicago, IL",USA,41.882891,-88.200594,1,street_center,,"Chicago St",,,"West Chicago",IL,"Dupage County",60185,US,"TIGER/Line® dataset from the US Census Bureau"
"Fogelsville, PA",USA,40.599843,-75.663187,1,place,,,,,Fogelsville,PA,"Lehigh County",18051,US,"TIGER/Line® dataset from the US Census Bureau"
"Rostraver Township, Pa.",USA,0,0,0,,,,,,,,,,,
"Northern Cambria, Pa.",USA,40.510227,-78.710477,1,county,,,,,,PA,"Cambria County",,US,"US Census Bureau"
"McClellandtown, Pa.",USA,39.892122,-79.848232,1,street_center,,"McClellandtown Rd",,,McClellandtown,PA,"Fayette County",15458,US,"TIGER/Line® dataset from the US Census Bureau"
"Stewartville, Minn.",USA,0,0,0,,,,,,,,,,,
"Belle Harbor, N.Y.",USA,0,0,0,,,,,,,,,,,
"Point Loma, CA",USA,39.220724,-121.641635,0.55,place,,,,,Lomo,CA,"Sutter County",95953,US,"TIGER/Line® dataset from the US Census Bureau"
"Pensacola, FL",USA,30.503475,-87.266652,1,street_center,,"Pensacola Blvd",,,Pensacola,FL,"Escambia County",32505,US,"TIGER/Line® dataset from the US Census Bureau"
"Genoa, IL",USA,42.110889,-88.720589,1,street_center,,"Genoa Rd",,,Genoa,IL,"Dekalb County",60135,US,"TIGER/Line® dataset from the US Census Bureau"
"Orlando, FL",USA,28.573287,-81.378803,1,street_center,,"Orlando St",,,Orlando,FL,"Orange County",32804,US,"TIGER/Line® dataset from the US Census Bureau"
"Kaneohe, HI",USA,21.40877,-157.7899,1,place,,,,,Kaneohe,HI,"Honolulu County",96744,US,"TIGER/Line® dataset from the US Census Bureau"
"Scarsdale, N.Y.",USA,40.965345,-73.826536,0.9,street_center,,"Scarsdale Rd",,,Tuckahoe,NY,"Westchester County",10707,US,"TIGER/Line® dataset from the US Census Bureau"
"Oakdale, N.Y.",USA,40.745055,-73.137148,1,street_center,,"Oakdale Ave",,,Oakdale,NY,"Suffolk County",11769,US,"TIGER/Line® dataset from the US Census Bureau"
"Ronkonkoma, N.Y.",USA,40.816793,-73.112389,1,street_center,,"Ronkonkoma Ave",,,Ronkonkoma,NY,"Suffolk County",11779,US,"TIGER/Line® dataset from the US Census Bureau"
"Brookline, N.H.",USA,42.749829,-71.737728,0.9,street_center,,"Brookline Rd",,,Greenville,NH,"Hillsborough County",03048,US,"TIGER/Line® dataset from the US Census Bureau"
"Brooklyn, N.Y.",USA,40.63776,-73.943928,1,street_center,,"Brooklyn Rd",,,Brooklyn,NY,"Kings County",11210,US,"TIGER/Line® dataset from the US Census Bureau"
"Summit, N.J.",USA,40.71275,-74.361594,1,place,,,,,Summit,NJ,"Union County",07901,US,"TIGER/Line® dataset from the US Census Bureau"
"Livonia, MI",USA,42.369351,-83.371753,1,place,,,,,Livonia,MI,"Wayne County",48150,US,"TIGER/Line® dataset from the US Census Bureau"
"Memphis, TN",USA,35.342226,-89.868875,0.9,street_center,,"Memphis Ave",,,Millington,TN,"Shelby County",38054,US,"TIGER/Line® dataset from the US Census Bureau"
"Aledo, TX",USA,32.677435,-97.486539,0.9,street_center,,"Aledo Rd",,,"Fort Worth",TX,"Tarrant County",76126,US,"TIGER/Line® dataset from the US Census Bureau"
"Loomis, CA",USA,38.814428,-121.176622,1,place,,,,,Loomis,CA,"Placer County",95650,US,"TIGER/Line® dataset from the US Census Bureau"
"Ramona, CA",USA,33.025326,-116.879303,1,street_center,,"Ramona St",,,Ramona,CA,"San Diego County",92065,US,"TIGER/Line® dataset from the US Census Bureau"
"Kailua, HI",USA,21.394554,-157.74312,1,street_center,,"Kailua Rd",,,Kailua,HI,"Honolulu County",96734,US,"TIGER/Line® dataset from the US Census Bureau"
"La Cresenta, Calif.",USA,0,0,0,,,,,,,,,,,
"Arecibom, Puerto Rico",USA,0,0,0,,,,,,,,,,,
"Oakdale, Minn.",USA,0,0,0,,,,,,,,,,,
"Hickory, N.C.",USA,35.758221,-81.308224,0.5,place,,,,,Hickory,NC,"Catawba County",28601,US,"TIGER/Line® dataset from the US Census Bureau"
"St. Michael, Minn.",USA,0,0,0,,,,,,,,,,,
"Fontana, Calif.",USA,0,0,0,,,,,,,,,,,
"Bondurant, IA",USA,41.730186,-93.45694,1,place,,,,,Bondurant,IA,"Polk County",50035,US,"TIGER/Line® dataset from the US Census Bureau"
"McAllen, TX",USA,26.175529,-98.064548,0.9,street_center,,"McAllen St",,,Donna,TX,"Hidalgo County",78537,US,"TIGER/Line® dataset from the US Census Bureau"
"Metamora, IL",USA,40.735109,-89.404729,1,street_center,,"Metamora Rd",,,Metamora,IL,"Tazewell County",61548,US,"TIGER/Line® dataset from the US Census Bureau"
"League City, TX",USA,29.508457,-95.097621,0.95,street_center,,"League St",,,"League City",TX,"Galveston County",77573,US,"TIGER/Line® dataset from the US Census Bureau"
"New Braunfels,TX",USA,29.739766,-98.104011,1,street_center,,"New Braunfels St",,,"New Braunfels",TX,"Comal County",78130,US,"TIGER/Line® dataset from the US Census Bureau"
"Inwood, W.Va.",USA,0,0,0,,,,,,,,,,,
"Rogers, Minn.",USA,0,0,0,,,,,,,,,,,
"Hillsborough, N.C.",USA,36.01708,-79.104614,1,street_center,,"Hillsborough Rd",,,Hillsborough,NC,"Orange County",27278,US,"TIGER/Line® dataset from the US Census Bureau"
"Emerald Isle, N.C.",USA,34.675112,-76.971294,1,street_center,,"Emerald Dr",,,"Emerald Isle",NC,"Carteret County",28594,US,"TIGER/Line® dataset from the US Census Bureau"
"Piedmont, S.C.",USA,34.769016,-82.431519,1,street_center,,"Piedmont Rd",,,Piedmont,SC,"Greenville County",29673,US,"TIGER/Line® dataset from the US Census Bureau"
"Hixon, Tenn.",USA,0,0,0,,"Could not geocode address. Postal code or city required.",,,,,,,,,
"Ozark, MO.",USA,37.094294,-93.228026,0.9,street_center,,"S Ozark Rd",,,Ozark,MO,"Greene County",65721,US,"TIGER/Line® dataset from the US Census Bureau"
"Henderson, N.C.",USA,36.308169,-78.57775,0.9,street_center,,"Henderson St",,,Oxford,NC,"Granville County",27565,US,"TIGER/Line® dataset from the US Census Bureau"
"Cold Spring, N.Y.",USA,41.452587,-73.838368,0.9,street_center,,"Cold Spring Turnpike",,,Carmel,NY,"Putnam County",10512,US,"TIGER/Line® dataset from the US Census Bureau"
"Hollis, N.H.",USA,42.715292,-71.630481,0.9,street_center,,"W Hollis Rd",,,Hollis,NH,"Hillsborough County",03049,US,"TIGER/Line® dataset from the US Census Bureau"
"Las Vegas, N.M.",USA,35.551539,-104.985643,0.5,place,,,,,"Las Vegas",NM,"San Miguel County",87701,US,"TIGER/Line® dataset from the US Census Bureau"
"Katy, TX",USA,29.784646,-95.74322,1,street_center,,"Katy Fwy",,,Katy,TX,"Harris County",77450,US,"TIGER/Line® dataset from the US Census Bureau"
"Spring, TX",USA,30.083452,-95.423993,1,street_center,,"Spring Rd",,,Spring,TX,"Harris County",77373,US,"TIGER/Line® dataset from the US Census Bureau"
"Brownsville, TX",USA,25.963264,-97.550453,1,place,,,,,Brownsville,TX,"Cameron County",78520,US,"TIGER/Line® dataset from the US Census Bureau"
"DeSoto, TX",USA,32.581252,-96.863378,1,street_center,,"Desoto Dr",,,Desoto,TX,"Dallas County",75115,US,"TIGER/Line® dataset from the US Census Bureau"
"Harlingen, TX",USA,26.255523,-97.667502,0.5,place,,,,,Harlingen,TX,"Cameron County",78550,US,"TIGER/Line® dataset from the US Census Bureau"
"Roswell, N.M.",USA,33.335199,-105.675816,0.9,street_center,,"Roswell St",,,Ruidoso,NM,"Lincoln County",88345,US,"TIGER/Line® dataset from the US Census Bureau"
"Griffin, GA",USA,33.440534,-84.14715,0.9,street_center,,"Griffin St",,,McDonough,GA,"Henry County",30253,US,"TIGER/Line® dataset from the US Census Bureau"
"Inman, SC",USA,35.017352,-82.119217,1,street_center,,"Inman Rd",,,Inman,SC,"Spartanburg County",29349,US,"TIGER/Line® dataset from the US Census Bureau"
"Ulysses, KS",USA,37.59009,-101.356886,1,street_center,,"Ulysses Pkwy",,,Ulysses,KS,"Grant County",67880,US,"TIGER/Line® dataset from the US Census Bureau"
"Coronado, CA",USA,32.629672,-117.138071,1,street_center,,"Coronado Cays Blvd",,,Coronado,CA,"San Diego County",92118,US,"TIGER/Line® dataset from the US Census Bureau"
"New London, OH",USA,41.079598,-82.392464,1,street_center,,"New London Ave",,,"New London",OH,"Huron County",44851,US,"TIGER/Line® dataset from the US Census Bureau"
"Waxhaw, NC",USA,34.924533,-80.729398,1,street_center,,"Waxhaw Hwy",,,Waxhaw,NC,"Union County",28173,US,"TIGER/Line® dataset from the US Census Bureau"
"Knoxville, TN",USA,36.032334,-83.884804,0.5,place,,,,,Knoxville,TN,"Knox County",37901,US,"TIGER/Line® dataset from the US Census Bureau"
"Cumming, GA",USA,34.08119,-84.282838,0.9,street_center,,"Cumming St",,,Alpharetta,GA,"Fulton County",30004,US,"TIGER/Line® dataset from the US Census Bureau"
"Lighthouse Point, FL",USA,27.20227,-80.273382,0.8,place,,,,,"Lighthouse Point",FL,"Martin County",33494,US,"TIGER/Line® dataset from the US Census Bureau"
"Norcross, GA",USA,33.934942,-84.184719,0.95,street_center,,"Norcross Pkwy",,,Norcross,GA,"Gwinnett County",30071,US,"TIGER/Line® dataset from the US Census Bureau"
"Blythewood, SC",USA,34.213247,-80.999317,1,street_center,,"Blythewood Rd",,,Blythewood,SC,"Richland County",29016,US,"TIGER/Line® dataset from the US Census Bureau"
"Lakeland, TN",USA,35.230644,-89.740361,0.4,place,,,,,Lakeland,TN,"Shelby County",38002,US,"TIGER/Line® dataset from the US Census Bureau"
"Upper Marlboro, MD",USA,38.970494,-76.771938,0.9,street_center,,"Upper Ct",,,Bowie,MD,"Prince George's County",20720,US,"TIGER/Line® dataset from the US Census Bureau"
"South Elgin, IL",USA,41.971938,-88.305828,1,street_center,,"Elgin St",,,"South Elgin",IL,"Kane County",60177,US,"TIGER/Line® dataset from the US Census Bureau"
"Tabor City, NC",USA,34.14878,-78.87669,1,place,,,,,"Tabor City",NC,"Columbus County",28463,US,"TIGER/Line® dataset from the US Census Bureau"
"Benson, NC",USA,35.673645,-78.603589,0.9,street_center,,"Benson Rd",,,Garner,NC,"Wake County",27529,US,"TIGER/Line® dataset from the US Census Bureau"
"St. Albans, MO",USA,38.578667,-90.772324,1,street_center,,"St Albans Rd",,,"Saint Albans",MO,"Franklin County",63073,US,"TIGER/Line® dataset from the US Census Bureau"
"Lemont, Ill.",USA,0,0,0,,,,,,,,,,,
"Gwinnett, Ga.",USA,34.125291,-84.006002,0.9,street_center,,"Gwinnett St",,,Buford,GA,"Gwinnett County",30518,US,"TIGER/Line® dataset from the US Census Bureau"
"Rock Hill, SC",USA,34.919118,-81.036586,1,street_center,,"Rock St",,,"Rock Hill",SC,"York County",29730,US,"TIGER/Line® dataset from the US Census Bureau"
"Anderson, SC",USA,34.835455,-82.415366,0.9,street_center,,"Anderson St",,,Greenville,SC,"Greenville County",29601,US,"TIGER/Line® dataset from the US Census Bureau"
"Chapel Hill, NC",USA,36.004647,-79.054475,0.5,place,,,,,"Chapel Hill",NC,"Orange County",27514,US,"TIGER/Line® dataset from the US Census Bureau"
"Pittstown, NJ",USA,40.585031,-74.955976,1,street_center,,"Pittstown Rd",,,Pittstown,NJ,"Hunterdon County",08867,US,"TIGER/Line® dataset from the US Census Bureau"
"Greer, S.C.",USA,34.860309,-82.222555,1,street_center,,"Greer Ct",,,Greer,SC,"Spartanburg County",29650,US,"TIGER/Line® dataset from the US Census Bureau"
"Aiken, S.C.",USA,33.649034,-81.366626,1,street_center,,"Aiken Rd",,,Aiken,SC,"Aiken County",29801,US,"TIGER/Line® dataset from the US Census Bureau"
"Washington, Okla.",USA,0,0,0,,,,,,,,,,,
"Riverside, CA",USA,33.729556,-117.763968,0.9,street_center,,Riverside,,,Irvine,CA,"Orange County",92602,US,"TIGER/Line® dataset from the US Census Bureau"
"Pacific Palisades, CA",USA,34.04806,-118.52647,0.5,place,,,,,"Pacific Palisades",CA,"Los Angeles County",90272,US,"TIGER/Line® dataset from the US Census Bureau"
"Simi Valley, CA",USA,34.280672,-118.696618,1,street_center,,"Simi Valley Ln",,,"Simi Valley",CA,"Ventura County",93063,US,"TIGER/Line® dataset from the US Census Bureau"
"Valencia, CA",USA,34.465755,-118.553789,0.5,place,,,,,Valencia,CA,"Los Angeles County",91354,US,"TIGER/Line® dataset from the US Census Bureau"
"Oak Hills, CA",USA,34.385069,-117.434068,1,street_center,,"Oak Hill Rd",,,Hesperia,CA,"San Bernardino County",92345,US,"TIGER/Line® dataset from the US Census Bureau"
"West Hills, CA",USA,33.786772,-118.270888,0.86,street_center,,"W L St",,,Wilmington,CA,"Los Angeles County",90744,US,"TIGER/Line® dataset from the US Census Bureau"
"Winchester, CA",USA,33.71691,-117.07357,0.5,place,,,,,Winchester,CA,"Riverside County",92596,US,"TIGER/Line® dataset from the US Census Bureau"
"Oceanside, CA",USA,33.199569,-117.346582,1,street_center,,"Oceanside Blvd",,,Oceanside,CA,"San Diego County",92054,US,"TIGER/Line® dataset from the US Census Bureau"
"Rohnert Park, CA",USA,38.348245,-122.707806,1,street_center,,"Rohnert Park Expy",,,"Rohnert Park",CA,"Sonoma County",94928,US,"TIGER/Line® dataset from the US Census Bureau"
"Cleveland, OH",USA,41.546201,-81.594964,1,street_center,,"Cleveland Rd",,,Cleveland,OH,"Cuyahoga County",44108,US,"TIGER/Line® dataset from the US Census Bureau"
"Oakdale, CA",USA,37.704431,-120.958372,0.9,street_center,,"Oakdale Rd",,,Modesto,CA,"Stanislaus County",95357,US,"TIGER/Line® dataset from the US Census Bureau"
"Dayton, OH",USA,39.761831,-84.208545,0.95,street_center,,"Dayton Ave",,,Dayton,OH,"Montgomery County",45402,US,"TIGER/Line® dataset from the US Census Bureau"
"Columbus, OH",USA,39.881571,-83.078388,0.9,street_center,,"Columbus St",,,"Grove City",OH,"Franklin County",43123,US,"TIGER/Line® dataset from the US Census Bureau"
"Manassas, VA",USA,38.783726,-77.470641,1,street_center,,"Manassas Dr",,,Manassas,VA,"Manassas Park City",20111,US,"TIGER/Line® dataset from the US Census Bureau"
"Labelle, FL",USA,26.690881,-81.448873,0.5,place,,,,,"La Belle",FL,"Hendry County",33935,US,"TIGER/Line® dataset from the US Census Bureau"
"Frederick, MD",USA,39.313889,-76.993917,0.9,street_center,,"Frederick Rd",,,"West Friendship",MD,"Howard County",21794,US,"TIGER/Line® dataset from the US Census Bureau"
"Syracuse, UT",USA,41.096293,-112.079415,1,place,,,,,Syracuse,UT,"Davis County",84075,US,"TIGER/Line® dataset from the US Census Bureau"
"Hoyt, KS",USA,39.24778,-95.70637,1,place,,,,,Hoyt,KS,"Jackson County",66440,US,"TIGER/Line® dataset from the US Census Bureau"
"Charleston, WV",USA,38.410003,-81.851144,0.9,street_center,,"Charleston St",,,"Saint Albans",WV,"Kanawha County",25177,US,"TIGER/Line® dataset from the US Census Bureau"
"Somerset, PA",USA,40.20938,-79.037138,0.9,street_center,,"Somerset Pike",,,Boswell,PA,"Somerset County",15531,US,"TIGER/Line® dataset from the US Census Bureau"
"Escondido, CA",USA,32.693143,-117.168837,0.9,street_center,,"Escondido Ln",,,Coronado,CA,"San Diego County",92118,US,"TIGER/Line® dataset from the US Census Bureau"
"Apple Valley, CA",USA,34.518864,-117.245403,0.95,street_center,,"Apple Valley Rd",,,"Apple Valley",CA,"San Bernardino County",92307,US,"TIGER/Line® dataset from the US Census Bureau"
"Cincinatti, OH",USA,39.288507,-84.350693,1,street_center,,"Cincinnati Ave",,,Cincinnati,OH,"Hamilton County",45249,US,"TIGER/Line® dataset from the US Census Bureau"
"Shaker Heights, OH",USA,41.483225,-81.591022,1,street_center,,"Shaker Sq",,,Cleveland,OH,"Cuyahoga County",44120,US,"TIGER/Line® dataset from the US Census Bureau"
"Sebring, FL",USA,27.46999,-81.444271,1,street_center,,"Sebring Dr",,,Sebring,FL,"Highlands County",33870,US,"TIGER/Line® dataset from the US Census Bureau"
"Highland, UT",USA,39.968255,-111.780826,0.9,street_center,,Highland,,,Santaquin,UT,"Utah County",84655,US,"TIGER/Line® dataset from the US Census Bureau"
"West Palm Beach, FL",USA,26.664235,-80.719299,0.9,street_center,,"W Palm Beach Rd",,,"South Bay",FL,"Palm Beach County",33493,US,"TIGER/Line® dataset from the US Census Bureau"
"Plain City, OH",USA,40.032969,-83.262694,0.5,street_center,,"County Rd 7",,,"Plain City",OH,"Madison County",43064,US,"TIGER/Line® dataset from the US Census Bureau"
"Burlington, KY",USA,39.020525,-84.755405,1,street_center,,"Burlington Pike",,,Burlington,KY,"Boone County",41005,US,"TIGER/Line® dataset from the US Census Bureau"
"Fort Gay, W.Va.",USA,0,0,0,,,,,,,,,,,
"New Martinsville, W.Va.",USA,36.681298,-79.86626,1,place,,,,,Martinsville,VA,"Martinsville City",24112,US,"TIGER/Line® dataset from the US Census Bureau"
"Shady Spring, W.Va.",USA,39.26533,-77.75005,0.9,street_center,,"Shady Ln",,,Purcellville,VA,"Loudoun County",20132,US,"TIGER/Line® dataset from the US Census Bureau"
"Cool Ridge, W.Va.",USA,38.789002,-77.104701,0.8,place,,,,,Ridgeview,VA,"Fairfax County",22310,US,"TIGER/Line® dataset from the US Census Bureau"
"Charmco, W.Va.",USA,0,0,0,,,,,,,,,,,
"Lindside, W.Va.",USA,0,0,0,,,,,,,,,,,
"Big Chimney, W.Va.",USA,37.522251,-78.668194,1,state,,,,,,VA,,,US,"TIGER/Line® dataset from the US Census Bureau"
"Bluefield, W.Va.",USA,37.25262,-81.27121,1,place,,,,,Bluefield,VA,"Tazewell County",24605,US,"TIGER/Line® dataset from the US Census Bureau"
"Orangeburg, S.C.",USA,33.509274,-80.863214,0.95,street_center,,"Orangeburg Mall Cir",,,Orangeburg,SC,"Orangeburg County",29115,US,"TIGER/Line® dataset from the US Census Bureau"
"Lewisburg, W.Va.",USA,0,0,0,,,,,,,,,,,
"Ocean, N.C.",USA,0,0,0,,,,,,,,,,,
"Boiling Springs, S.C.",USA,0,0,0,,,,,,,,,,,
"Atlanta, IL",USA,40.233769,-89.257602,1,place,,,,,Atlanta,IL,"Logan County",61723,US,"TIGER/Line® dataset from the US Census Bureau"
"Wildwood, MO",USA,40.185557,-94.085508,0.8,place,,,,,Wildwood,MO,"Harrison County",64424,US,"TIGER/Line® dataset from the US Census Bureau"
"Bentonville, AR",USA,36.347107,-94.223419,1,place,,,,,Bentonville,AR,"Benton County",72712,US,"TIGER/Line® dataset from the US Census Bureau"
"Broken Arrow, OK",USA,36.067988,-95.790231,1,street_center,,"Broken Arrow Expy",,,"Broken Arrow",OK,"Tulsa County",74012,US,"TIGER/Line® dataset from the US Census Bureau"
"Rogersville, MO",USA,37.224224,-92.983202,1,place,,,,,Rogersville,MO,"Webster County",65742,US,"TIGER/Line® dataset from the US Census Bureau"
"Waynesville, MO",USA,37.767552,-92.210471,1,place,,,,,Waynesville,MO,"Pulaski County",65583,US,"TIGER/Line® dataset from the US Census Bureau"
"Kansas City, MO",USA,39.244879,-94.458094,0.9,street_center,,"W Kansas St",,,"Kansas City",MO,"Clay County",64158,US,"TIGER/Line® dataset from the US Census Bureau"
"Joplin, MO",USA,37.139773,-94.512488,1,street_center,,"Joplin St",,,Joplin,MO,"Jasper County",64801,US,"TIGER/Line® dataset from the US Census Bureau"
"Ozark, MO",USA,37.094294,-93.228026,0.9,street_center,,"S Ozark Rd",,,Ozark,MO,"Greene County",65721,US,"TIGER/Line® dataset from the US Census Bureau"
"Springfield, MO",USA,37.098698,-93.351906,0.9,street_center,,"W Springview St",,,Springfield,MO,"Greene County",65810,US,"TIGER/Line® dataset from the US Census Bureau"
"Jefferson City, MO",USA,38.471573,-90.750538,0.86,street_center,,"Jefferson St",,,Pacific,MO,"Franklin County",63069,US,"TIGER/Line® dataset from the US Census Bureau"
"Marion, IA",USA,42.174743,-91.549693,0.9,street_center,,"Marion Rd",,,"Central City",IA,"Linn County",52214,US,"TIGER/Line® dataset from the US Census Bureau"
"Wheeling, W.Va.",USA,0,0,0,,,,,,,,,,,
"Madisonville, TX",USA,30.970828,-95.890751,1,place,,,,,Madisonville,TX,"Madison County",77864,US,"TIGER/Line® dataset from the US Census Bureau"
"Schertz, TX",USA,29.588522,-98.289204,1,street_center,,"Schertz Pkwy",,,Schertz,TX,"Guadalupe County",78154,US,"TIGER/Line® dataset from the US Census Bureau"
"Belton, TX",USA,30.983551,-97.521848,1,place,,,,,Belton,TX,"Bell County",76513,US,"TIGER/Line® dataset from the US Census Bureau"
"Fulshear, TX",USA,29.710416,-95.907247,0.9,street_center,,"N Fulshear Dr",,,Fulshear,TX,"Fort Bend County",77441,US,"TIGER/Line® dataset from the US Census Bureau"
"Rosenberg, TX",USA,29.401179,-95.839022,0.9,street_center,,"Rosenberg St",,,Needville,TX,"Fort Bend County",77461,US,"TIGER/Line® dataset from the US Census Bureau"
"Cypress, TX",USA,29.994186,-95.643704,0.9,street_center,,"Cypress Ridge Dr",,,Cypress,TX,"Harris County",77429,US,"TIGER/Line® dataset from the US Census Bureau"
"Wichita Falls, TX",USA,33.9191,-98.501913,1,street_center,,"Wichita St",,,"Wichita Falls",TX,"Wichita County",76306,US,"TIGER/Line® dataset from the US Census Bureau"
"Burleson, TX",USA,32.751737,-97.014987,0.9,street_center,,"Burleson St",,,"Grand Prairie",TX,"Dallas County",75050,US,"TIGER/Line® dataset from the US Census Bureau"
"Troy, TX",USA,31.108906,-97.362411,0.9,street_center,,"Troy St",,,Temple,TX,"Bell County",76504,US,"TIGER/Line® dataset from the US Census Bureau"
"Crawford, TX",USA,31.565099,-97.43051,0.5,place,,,,,Crawford,TX,"McLennan County",76638,US,"TIGER/Line® dataset from the US Census Bureau"
"Wylie, TX",USA,32.867502,-96.419013,0.9,street_center,,"Wylie Ln",,,Rockwall,TX,"Rockwall County",75032,US,"TIGER/Line® dataset from the US Census Bureau"
"Celina,TX",USA,33.307475,-96.839679,1,street_center,,"Celina Rd",,,Celina,TX,"Denton County",75009,US,"TIGER/Line® dataset from the US Census Bureau"
"Arlington,TX",USA,32.635563,-97.148829,0.5,place,,,,,Arlington,TX,"Tarrant County",76001,US,"TIGER/Line® dataset from the US Census Bureau"
"Haslet, TX",USA,32.970848,-97.412101,1,street_center,,"Haslet Ct",,,Haslet,TX,"Tarrant County",76052,US,"TIGER/Line® dataset from the US Census Bureau"
"Lewisville, N.C.",USA,36.087682,-80.406386,0.6,street_center,,"State Rte 1156",,,Lewisville,NC,"Forsyth County",27023,US,"TIGER/Line® dataset from the US Census Bureau"
"Topeka, KS",USA,39.0686,-95.672116,0.9,street_center,,"NW Topeka Ave",,,Topeka,KS,"Shawnee County",66608,US,"TIGER/Line® dataset from the US Census Bureau"
"Emporia, KS",USA,38.434153,-96.152766,0.5,place,,,,,Emporia,KS,"Lyon County",66801,US,"TIGER/Line® dataset from the US Census Bureau"
"Laredo, TX",USA,27.507634,-99.476794,1,street_center,,"Laredo St",,,Laredo,TX,"Webb County",78043,US,"TIGER/Line® dataset from the US Census Bureau"
"Hays, KS",USA,38.878202,-99.334803,1,place,,,,,Hays,KS,"Ellis County",67601,US,"TIGER/Line® dataset from the US Census Bureau"
"Atchison, KS",USA,39.565042,-95.126106,1,street_center,,"Atchison St",,,Atchison,KS,"Atchison County",66002,US,"TIGER/Line® dataset from the US Census Bureau"
"Lebo, KS",USA,38.41668,-95.85304,1,place,,,,,Lebo,KS,"Coffey County",66856,US,"TIGER/Line® dataset from the US Census Bureau"
"New Strawn, KS",USA,38.26252,-95.741931,0.8,place,,,,,"New Strawn",KS,"Coffey County",66839,US,"TIGER/Line® dataset from the US Census Bureau"
"Pflugerville, TX",USA,30.442737,-97.597055,0.5,place,,,,,Pflugerville,TX,"Travis County",78660,US,"TIGER/Line® dataset from the US Census Bureau"
"Council Grove, KS",USA,38.69588,-96.5469,1,place,,,,,"Council Grove",KS,"Morris County",66846,US,"TIGER/Line® dataset from the US Census Bureau"
"Stillwater, OK",USA,36.101521,-97.069061,0.5,place,,,,,Stillwater,OK,"Payne County",74074,US,"TIGER/Line® dataset from the US Census Bureau"
"Herington, KS",USA,38.67112,-96.94251,1,place,,,,,Herington,KS,"Dickinson County",67449,US,"TIGER/Line® dataset from the US Census Bureau"
"Harmony, NC",USA,35.78121,-80.869691,0.9,street_center,,"Harmony Dr",,,Statesville,NC,"Iredell County",28677,US,"TIGER/Line® dataset from the US Census Bureau"
"Charleston, SC",USA,33.013005,-80.183443,0.9,street_center,,"Charleston St",,,Summerville,SC,"Dorchester County",29483,US,"TIGER/Line® dataset from the US Census Bureau"
"Glencoe, AL",USA,33.504078,-86.740815,0.9,street_center,,"Glencoe Dr",,,Birmingham,AL,"Jefferson County",35213,US,"TIGER/Line® dataset from the US Census Bureau"
"Spotsylvania, VA",USA,38.242251,-77.49742,0.9,street_center,,"Spotsylvania Ave",,,Fredericksburg,VA,"Spotsylvania County",22408,US,"TIGER/Line® dataset from the US Census Bureau"
"Summerville, SC",USA,33.048115,-80.114079,1,street_center,,"Old Summerville Rd",,,Summerville,SC,"Berkeley County",29483,US,"TIGER/Line® dataset from the US Census Bureau"
"Davie County, NC",USA,0,0,0,,,,,,,,,,,
"Belton, SC",USA,34.486962,-82.554838,1,street_center,,Belton,,,Belton,SC,"Anderson County",29627,US,"TIGER/Line® dataset from the US Census Bureau"
"Pendleton, SC",USA,34.70265,-82.724527,1,street_center,,"Pendleton Woods Cir",,,Pendleton,SC,"Anderson County",29670,US,"TIGER/Line® dataset from the US Census Bureau"
"Pauline, SC",USA,34.83318,-81.87232,0.5,place,,,,,Pauline,SC,"Spartanburg County",29374,US,"TIGER/Line® dataset from the US Census Bureau"
"Indian Land, SC",USA,35.00169,-80.85543,0.45,place,,,,,"Indian Land",SC,"Lancaster County",29707,US,"TIGER/Line® dataset from the US Census Bureau"
"Lugoff, SC",USA,34.260265,-80.731308,1,place,,,,,Lugoff,SC,"Kershaw County",29078,US,"TIGER/Line® dataset from the US Census Bureau"
"Carolina Forest, SC",USA,0,0,0,,,,,,,,,,,
"Tomball, TX",USA,30.08672,-95.631918,1,street_center,,"Tomball Pkwy",,,Tomball,TX,"Harris County",77375,US,"TIGER/Line® dataset from the US Census Bureau"
"Greenville, SC",USA,34.193201,-82.384156,0.9,street_center,,"Greenville St",,,Abbeville,SC,"Abbeville County",29620,US,"TIGER/Line® dataset from the US Census Bureau"
"Fort Mill, SC",USA,35.050243,-80.990828,0.5,place,,,,,"Fort Mill",SC,"York County",29708,US,"TIGER/Line® dataset from the US Census Bureau"
"Bridgeport, W.Va.",USA,0,0,0,,,,,,,,,,,
"Rio Rancho, N.M.",USA,35.24307,-106.655278,0.9,street_center,,"Rio Rancho Dr SE",,,"Rio Rancho",NM,"Sandoval County",87124,US,"TIGER/Line® dataset from the US Census Bureau"
"Farmington, N.M.",USA,36.745217,-108.179566,1,street_center,,"Farmington Ave",,,Farmington,NM,"San Juan County",87401,US,"TIGER/Line® dataset from the US Census Bureau"
"Aztec, N.M.",USA,36.823331,-108.042739,0.9,street_center,,"W Aztec Blvd",,,Aztec,NM,"San Juan County",87410,US,"TIGER/Line® dataset from the US Census Bureau"
"Winterville, NC",USA,35.531961,-77.396671,0.95,street_center,,"Winterville Ct",,,Winterville,NC,"Pitt County",28590,US,"TIGER/Line® dataset from the US Census Bureau"
"Smithfield, UT",USA,41.845156,-111.809528,0.7,street_center,,"Smithfield Canyon Rd",,,Smithfield,UT,"Cache County",84335,US,"TIGER/Line® dataset from the US Census Bureau"
"Campbellsville, KY",USA,37.343049,-85.36439,0.95,street_center,,"Campbellsville Byp",,,Campbellsville,KY,"Taylor County",42718,US,"TIGER/Line® dataset from the US Census Bureau"
"Pickens, SC",USA,34.835435,-82.624762,0.9,street_center,,"Pickens St",,,Easley,SC,"Pickens County",29640,US,"TIGER/Line® dataset from the US Census Bureau"
"Quincy, FL",USA,30.555675,-84.63183,1,place,,,,,Quincy,FL,"Gadsden County",32351,US,"TIGER/Line® dataset from the US Census Bureau"
"Myrtle Beach, SC",USA,33.790006,-78.747125,1,street_center,,"Myrtle Ln",,,"Myrtle Beach",SC,"Horry County",29572,US,"TIGER/Line® dataset from the US Census Bureau"
"Albertville, MN",USA,44.967943,-94.049244,0.8,street_center,,"Albert Ave W",,,Winsted,MN,"McLeod County",55395,US,"TIGER/Line® dataset from the US Census Bureau"
"Plano, TX",USA,33.016124,-96.777,0.9,street_center,,"W Plano Pkwy",,,Plano,TX,"Collin County",75093,US,"TIGER/Line® dataset from the US Census Bureau"
"Tega Cay, SC",USA,35.048152,-81.016413,1,street_center,,"Tega Cay Dr",,,"Fort Mill",SC,"York County",29715,US,"TIGER/Line® dataset from the US Census Bureau"
"Fayetteville, NC",USA,35.006282,-79.181299,0.9,street_center,,"Fayetteville Rd",,,Raeford,NC,"Hoke County",28376,US,"TIGER/Line® dataset from the US Census Bureau"
"Easley, SC",USA,34.872646,-82.883648,0.9,street_center,,"Easley Pt",,,"Six Mile",SC,"Pickens County",29682,US,"TIGER/Line® dataset from the US Census Bureau"
"Sharpsburg, GA",USA,33.363069,-84.659393,1,place,,,,,Sharpsburg,GA,"Coweta County",30277,US,"TIGER/Line® dataset from the US Census Bureau"
"Mount Holly, NC",USA,35.318697,-81.026738,1,place,,,,,"Mount Holly",NC,"Gaston County",28120,US,"TIGER/Line® dataset from the US Census Bureau"
"Victoria, MN",USA,44.866391,-93.674057,1,street_center,,"Victoria Dr",,,Victoria,MN,"Carver County",55386,US,"TIGER/Line® dataset from the US Census Bureau"
"Waxhaw, N.C.",USA,34.924533,-80.729398,1,street_center,,"Waxhaw Hwy",,,Waxhaw,NC,"Union County",28173,US,"TIGER/Line® dataset from the US Census Bureau"
"North Huntington, Pa.",USA,40.167666,-78.137267,1,street_center,,"Huntington Sq",,,Wood,PA,"Huntingdon County",16694,US,"TIGER/Line® dataset from the US Census Bureau"
"Bolivar, N.Y.",USA,42.032858,-78.110448,0.9,street_center,,"S Bolivar Rd",,,Bolivar,NY,"Allegany County",14715,US,"TIGER/Line® dataset from the US Census Bureau"
"Bloomery, W.Va.",USA,0,0,0,,,,,,,,,,,
"Cortlandt Manor, N.Y.",USA,41.316307,-73.902119,0.95,street_center,,"Cortlandt Ave",,,"Cortlandt Manor",NY,"Westchester County",10567,US,"TIGER/Line® dataset from the US Census Bureau"
"Monroe, NY",USA,41.313696,-74.226901,1,street_center,,"Monroe St",,,Monroe,NY,"Orange County",10950,US,"TIGER/Line® dataset from the US Census Bureau"
"Missoula, Mont.",USA,0,0,0,,,,,,,,,,,
"Butler, PA",USA,40.849999,-79.92815,1,street_center,,"Butler Rd",,,Butler,PA,"Butler County",16001,US,"TIGER/Line® dataset from the US Census Bureau"
"Greensburg, PA",USA,40.210331,-79.735999,0.9,street_center,,"Greensburg Pike",,,"West Newton",PA,"Westmoreland County",15089,US,"TIGER/Line® dataset from the US Census Bureau"
"Pottstown, PA",USA,40.015481,-75.618899,0.86,street_center,,"Pottstown Pike",,,"West Chester",PA,"Chester County",19380,US,"TIGER/Line® dataset from the US Census Bureau"
"Evansville, IN",USA,38.184108,-87.71058,0.9,street_center,,"Evansville St",,,Cynthiana,IN,"Posey County",47612,US,"TIGER/Line® dataset from the US Census Bureau"
"Silver Spring, MD",USA,38.992089,-77.016118,1,street_center,,"Silver Spring Ave",,,"Silver Spring",MD,"Montgomery County",20910,US,"TIGER/Line® dataset from the US Census Bureau"
"Massillon, OH",USA,40.915026,-81.462188,0.9,street_center,,"Massillon Rd",,,Canton,OH,"Summit County",44720,US,"TIGER/Line® dataset from the US Census Bureau"
"Pittsburgh, PA",USA,40.511432,-80.089169,1,street_center,,"Pittsburgh St",,,Pittsburgh,PA,"Allegheny County",15202,US,"TIGER/Line® dataset from the US Census Bureau"
"Forest Hills, PA",USA,40.434459,-79.862448,1,street_center,,"Forest Hills Rd",,,Pittsburgh,PA,"Allegheny County",15221,US,"TIGER/Line® dataset from the US Census Bureau"
"Webster,NY",USA,43.21821,-77.454075,0.5,place,,,,,Webster,NY,"Monroe County",14580,US,"TIGER/Line® dataset from the US Census Bureau"
"Saint Marys, OH",USA,40.602832,-84.390924,0.9,street_center,,"St Marys River Rd",,,"Saint Marys",OH,"Auglaize County",45885,US,"TIGER/Line® dataset from the US Census Bureau"
"Creighton, PA",USA,40.43147,-80.066438,0.9,street_center,,"Creighton Ave",,,Pittsburgh,PA,"Allegheny County",15205,US,"TIGER/Line® dataset from the US Census Bureau"
"Youngstown, OH",USA,41.017082,-80.802854,0.5,place,,,,,Youngstown,OH,"Mahoning County",44501,US,"TIGER/Line® dataset from the US Census Bureau"
"Clarence, NY",USA,43.005893,-78.596245,0.7,street_center,,"Clarence Center Rd",,,Clarence,NY,"Erie County",14031,US,"TIGER/Line® dataset from the US Census Bureau"
"Green, OH",USA,41.16855,-81.325517,0.9,street_center,,"Green St",,,Kent,OH,"Portage County",44240,US,"TIGER/Line® dataset from the US Census Bureau"
"Skippack, PA",USA,40.230302,-75.407721,0.9,street_center,,"W Skippack Pike",,,Skippack,PA,"Montgomery County",19474,US,"TIGER/Line® dataset from the US Census Bureau"
"Seattle, WA",USA,47.589502,-122.388029,0.9,street_center,,"SW Seattle St",,,Seattle,WA,"King County",98116,US,"TIGER/Line® dataset from the US Census Bureau"
"Glenville, W.Va.",USA,0,0,0,,,,,,,,,,,
"Philippi, W.Va.",USA,36.610715,-82.17005,0.55,place,,,,,Phillip,VA,"Bristol City",24201,US,"TIGER/Line® dataset from the US Census Bureau"
"Saint Mary's, W.Va.",USA,0,0,0,,,,,,,,,,,
"Walnut Cove, N.C.",USA,36.20453,-80.167877,0.9,street_center,,"Walnut Cove Rd",,,Walkertown,NC,"Forsyth County",27051,US,"TIGER/Line® dataset from the US Census Bureau"
"Deep Gap, N.C.",USA,36.207343,-81.541072,0.5,place,,,,,"Deep Gap",NC,"Watauga County",28618,US,"TIGER/Line® dataset from the US Census Bureau"
"Sophia, N.C.",USA,35.817452,-79.908483,1,place,,,,,Sophia,NC,"Randolph County",27350,US,"TIGER/Line® dataset from the US Census Bureau"
"York, S.C.",USA,34.955666,-81.335288,0.9,street_center,,"York St",,,Sharon,SC,"York County",29742,US,"TIGER/Line® dataset from the US Census Bureau"
"Little Rock, AR",USA,34.708566,-92.23584,1,street_center,,"Little Rock St",,,"Little Rock",AR,"Pulaski County",72206,US,"TIGER/Line® dataset from the US Census Bureau"
"Cabot, AR",USA,34.996311,-92.017696,1,street_center,,"Cabot Cv",,,Cabot,AR,"Lonoke County",72023,US,"TIGER/Line® dataset from the US Census Bureau"
"Collierville, TN",USA,35.027263,-89.71478,1,street_center,,"Collierville Ct",,,Collierville,TN,"Shelby County",38017,US,"TIGER/Line® dataset from the US Census Bureau"
"Alexander, AR",USA,34.639206,-92.428575,1,street_center,,"Alexander Rd",,,Alexander,AR,"Pulaski County",72002,US,"TIGER/Line® dataset from the US Census Bureau"
"Grand Prairie, TX",USA,32.742477,-96.994078,1,street_center,,"Grand Prairie Rd",,,"Grand Prairie",TX,"Dallas County",75051,US,"TIGER/Line® dataset from the US Census Bureau"
"Farmington, AR",USA,36.055386,-94.201285,0.9,street_center,,"W Old Farmington Rd",,,Farmington,AR,"Washington County",72730,US,"TIGER/Line® dataset from the US Census Bureau"
"Greenwood, AR",USA,35.193477,-94.202463,1,street_center,,"Greenwood Ln",,,Greenwood,AR,"Sebastian County",72936,US,"TIGER/Line® dataset from the US Census Bureau"
"Jonesboro, AR",USA,35.821662,-90.824601,0.7,street_center,,"Old Jonesboro Cash Rd",,,Jonesboro,AR,"Craighead County",72404,US,"TIGER/Line® dataset from the US Census Bureau"
"Sewell, N.J.",USA,39.763156,-75.108755,1,street_center,,"Sewell Rd",,,Sewell,NJ,"Gloucester County",08080,US,"TIGER/Line® dataset from the US Census Bureau"
"Mullica Hill, N.J.",USA,39.71062,-75.125112,0.9,street_center,,"Mullica Hill Rd",,,Glassboro,NJ,"Gloucester County",08028,US,"TIGER/Line® dataset from the US Census Bureau"
"Queens, N.Y.",USA,40.74738,-73.939607,1,street_center,,"Queens St",,,"Long Island City",NY,"Queens County",11101,US,"TIGER/Line® dataset from the US Census Bureau"
"Moore, S.C.",USA,35.022369,-81.800979,0.9,street_center,,"Moore St",,,Cowpens,SC,"Spartanburg County",29330,US,"TIGER/Line® dataset from the US Census Bureau"
"Temecula, CA",USA,33.470764,-117.117539,1,street_center,,"Temecula Ln",,,Temecula,CA,"Riverside County",92592,US,"TIGER/Line® dataset from the US Census Bureau"
"Rancho Cucamonga, CA",USA,34.15374,-117.614476,1,street_center,,"Rancho St",,,"Rancho Cucamonga",CA,"San Bernardino County",91701,US,"TIGER/Line® dataset from the US Census Bureau"
